{
  "0": {
    "_id": "5e565de00c5ef2060b4c0dcd",
    "patient_info": {
      "patient_id": 1,
      "age": 19,
      "sex": "M",
      "country": "korea",
      "religion": "Chatolic",
      "residental_info": {
        "city": "busan",
        "district": "동래구",
        "lat": 35.2212534758027,
        "lng": 129.082735370039
      }
    },
    "infection_info": {
      "infection_place": {
        "name": "온천교회",
        "lat": 35.21598177534,
        "lng": 129.077176124061
      },
      "infection_type": "religion",
      "infection_factor": 564,
      "isolation_place": {
        "name": "부산의료원",
        "lat": 35.1872965543253,
        "lng": 129.059224891471
      }
    },
    "route": [
      {
        "name": "부산전자공업고등학교",
        "lat": 35.21534437587,
        "lng": 129.073566981198,
        "start_time": "2020-02-18T02:50:00z",
        "end_time": "2020-02-18T03:40:00z"
      },
      {
        "name": "대성관호텔",
        "lat": 35.219586950388,
        "lng": 129.081129039959,
        "start_time": "2020-02-18T04:00:00z",
        "end_time": "2020-02-18T05:40:00z"
      },
      {
        "name": "동래밀면 본점",
        "lat": 35.1983246042788,
        "lng": 129.084200429359,
        "start_time": "2020-02-18T06:10:00z",
        "end_time": "2020-02-18T07:00:00z"
      },
      {
        "name": "복산동행정복지센터",
        "lat": 35.205756699454,
        "lng": 129.086118555721,
        "start_time": "2020-02-18T07:20:00z",
        "end_time": "2020-02-18T07:30:00z"
      },
      {
        "name": "동래구청",
        "lat": 35.196301486223,
        "lng": 129.093862189572,
        "start_time": "2020-02-18T08:00:00z",
        "end_time": "2020-02-18T08:20:00z"
      },
      {
        "name": "GS수퍼마켓 명장점",
        "lat": 35.2062630104746,
        "lng": 129.101856310402,
        "start_time": "2020-02-18T08:40:00z",
        "end_time": "2020-02-18T09:00:00z"
      },
      {
        "name": "온천교회",
        "lat": 35.21598177534,
        "lng": 129.077176124061,
        "start_time": "2020-02-19T01:00:00z",
        "end_time": "2020-02-19T04:00:00z"
      },
      {
        "name": "온천교회",
        "lat": 35.21598177534,
        "lng": 129.077176124061,
        "start_time": "2020-02-19T09:30:00z",
        "end_time": "2020-02-19T12:00:00z"
      },
      {
        "name": "피자몰 부산광안리켄트호텔점",
        "lat": 35.1543131063468,
        "lng": 129.119044641998,
        "start_time": "2020-02-20T04:40:00z",
        "end_time": "2020-02-20T06:00:00z"
      },
      {
        "name": "GS25 동래꿈에그린점",
        "lat": 35.1965775745021,
        "lng": 129.090766846406,
        "start_time": "2020-02-20T09:30:00z",
        "end_time": "2020-02-20T09:40:00z"
      },
      {
        "name": "코로나19 대동병원 선별진료소",
        "lat": 35.2042360924945,
        "lng": 129.080223332621,
        "start_time": "2020-02-21T00:19:00z",
        "end_time": "2020-02-21T01:45:00z"
      },
      {
        "name": "가까운약국",
        "lat": 35.2045532706682,
        "lng": 129.079805428736,
        "start_time": "2020-02-21T01:46:00z",
        "end_time": "2020-02-21T01:50:00z"
      },
      {
        "name": "메가마트 동래점",
        "lat": 35.2045873009765,
        "lng": 129.081180902374,
        "start_time": "2020-02-21T01:55:00z",
        "end_time": "2020-02-21T02:05:00z"
      },
      {
        "name": "얼쑤대박터지는집",
        "lat": 35.1994416839884,
        "lng": 129.098615280715,
        "start_time": "2020-02-21T09:05:00z",
        "end_time": "2020-02-21T11:30:00z"
      },
      {
        "name": "동래구 보건소",
        "lat": 35.2114120201011,
        "lng": 129.079853036605,
        "start_time": "2020-02-21T11:30:00z",
        "end_time": "2020-02-21T14:30:00z"
      }
    ]
  },
  "1": {
    "_id": "5e568d540c5ef2060b4c0dcf",
    "patient_info": {
      "patient_id": 2,
      "age": 57,
      "sex": "F",
      "country": "korea",
      "religion": "none",
      "residental_info": {
        "city": "busan",
        "district": "해운대구",
        "lat": 35.1785969384698,
        "lng": 129.199700145244
      }
    },
    "infection_info": {
      "infection_place": {
        "name": "대구",
        "lat": 35.8532271659164,
        "lng": 128.566581310322
      },
      "infection_type": "place",
      "infection_factor": 136,
      "isolation_place": {
        "name": "부산의료원",
        "lat": 35.1872965543253,
        "lng": 129.059224891471
      }
    },
    "route": [
      {
        "name": "수서역",
        "lat": 37.4852951142482,
        "lng": 127.104469788175,
        "start_time": "2020-02-18T05:00:00z",
        "end_time": "2020-02-17T15:00:00z"
      },
      {
        "name": "부산역",
        "lat": 35.1151082632134,
        "lng": 129.041420256627,
        "start_time": "2020-02-17T15:00:00z",
        "end_time": "2020-02-17T15:00:00z"
      },
      {
        "name": "장산성당",
        "lat": 35.2057631699487,
        "lng": 129.125523704084,
        "start_time": "2020-02-19T01:00:00z",
        "end_time": "2020-02-19T02:00:00z"
      },
      {
        "name": "장산명가",
        "lat": 35.1991027868075,
        "lng": 129.119101170432,
        "start_time": "2020-02-19T02:00:00z",
        "end_time": "2020-02-19T03:40:00z"
      },
      {
        "name": "자연드림 부산반여점",
        "lat": 35.1994906708017,
        "lng": 129.11712194498,
        "start_time": "2020-02-19T03:53:00z",
        "end_time": "2020-02-19T04:30:00z"
      },
      {
        "name": "센텀내과의원",
        "lat": 35.2026858383776,
        "lng": 129.119918891654,
        "start_time": "2020-02-20T01:00:00z",
        "end_time": "2020-02-20T02:00:00z"
      },
      {
        "name": "원온누리약국",
        "lat": 35.2026858383776,
        "lng": 129.119918891654,
        "start_time": "2020-02-20T02:00:00z",
        "end_time": "2020-02-20T02:20:00z"
      },
      {
        "name": "센텀내과의원",
        "lat": 35.2026858383776,
        "lng": 129.119918891654,
        "start_time": "2020-02-20T02:20:00z",
        "end_time": "2020-02-20T02:50:00z"
      },
      {
        "name": "코로나19 해운대백병원 선별진료소",
        "lat": 35.1733359146975,
        "lng": 129.182183058154,
        "start_time": "2020-02-21T02:00:00z",
        "end_time": "2020-02-21T02:00:00z"
      }
    ]
  },
  "2": {
    "_id": "5e568ff60c5ef2060b4c0dd0",
    "patient_info": {
      "patient_id": 3,
      "age": 20,
      "sex": "F",
      "country": "korea",
      "religion": "none",
      "residental_info": {
        "city": "busan",
        "district": "해운대구",
        "lat": 35.1785969384698,
        "lng": 129.199700145244
      }
    },
    "infection_info": {
      "infection_place": {
        "name": "대구",
        "lat": 35.8532271659164,
        "lng": 128.566581310322
      },
      "infection_type": "place",
      "infection_factor": 16,
      "isolation_place": {
        "name": "부산대학병원",
        "lat": 35.3287881899928,
        "lng": 129.006486011007
      }
    },
    "route": [
      {
        "name": "부산광역시교육청",
        "lat": 35.1762157665766,
        "lng": 129.064735978568,
        "start_time": "2020-02-21T04:30:00z",
        "end_time": "2020-02-21T05:00:00z"
      },
      {
        "name": "10분다이어트힐링샵",
        "lat": 35.1606568998852,
        "lng": 129.115144728573,
        "start_time": "2020-02-21T05:00:00z",
        "end_time": "2020-02-21T06:00:00z"
      },
      {
        "name": "코로나19 BHS한서병원 선별진료소",
        "lat": 35.1608998044941,
        "lng": 129.11320654836,
        "start_time": "2020-02-21T06:00:00z",
        "end_time": "2020-02-21T08:40:00z"
      },
      {
        "name": "부산대학교병원",
        "lat": 35.1008243310038,
        "lng": 129.0187383154,
        "start_time": "2020-02-22T04:00:00z",
        "end_time": "2020-02-22T04:00:00z"
      }
    ]
  },
  "3": {
    "_id": "5e5693c50c5ef2060b4c0dd1",
    "patient_info": {
      "patient_id": 4,
      "age": 22,
      "sex": "F",
      "country": "korea",
      "religion": "ShinCheonJi",
      "residental_info": {
        "city": "busan",
        "district": "해운대구",
        "lat": 35.1785969384698,
        "lng": 129.199700145244
      }
    },
    "infection_info": {
      "infection_place": {
        "name": "none",
        "lat": 36.9465596862886,
        "lng": 127.014450917838
      },
      "infection_type": "religion",
      "infection_factor": 8,
      "isolation_place": {
        "name": "부산대학병원",
        "lat": 35.3287881899928,
        "lng": 129.006486011007
      }
    },
    "route": [
      {
        "name": "동대구터미널",
        "lat": 35.8779859596367,
        "lng": 128.630308498358,
        "start_time": "2020-02-18T10:10:00z",
        "end_time": "2020-02-18T10:10:00z"
      },
      {
        "name": "해운대시외버스정류소",
        "lat": 35.164784693786,
        "lng": 129.160441668232,
        "start_time": "2020-02-18T11:40:00z",
        "end_time": "2020-02-18T11:40:00z"
      },
      {
        "name": "신선지국밥",
        "lat": 35.1863875033203,
        "lng": 129.203400703248,
        "start_time": "2020-02-18T12:00:00z",
        "end_time": "2020-02-18T13:00:00z"
      },
      {
        "name": "다비치안경 좌동점",
        "lat": 35.172604008318,
        "lng": 129.176285426546,
        "start_time": "2020-02-18T13:20:00z",
        "end_time": "2020-02-18T13:30:00z"
      },
      {
        "name": "CU 해운대경남선경점",
        "lat": 35.1659690245044,
        "lng": 129.185036878118,
        "start_time": "2020-02-19T05:00:00z",
        "end_time": "2020-02-19T05:00:00z"
      },
      {
        "name": "경남선경아파트",
        "lat": 35.1663907505139,
        "lng": 129.185636363876,
        "start_time": "2020-02-19T11:00:00z",
        "end_time": "2020-02-19T11:00:00z"
      },
      {
        "name": "코로나19 해운대구보건소 선별진료소",
        "lat": 35.1641122033114,
        "lng": 129.178662018177,
        "start_time": "2020-02-21T08:45:00z",
        "end_time": "2020-02-21T08:45:00z"
      },
      {
        "name": "부산대학교병원",
        "lat": 35.1008243310038,
        "lng": 129.0187383154,
        "start_time": "2020-02-22T09:45:00z",
        "end_time": "2020-02-22T09:45:00z"
      }
    ]
  },
  "4": {
    "_id": "5e5695290c5ef2060b4c0dd2",
    "patient_info": {
      "patient_id": 5,
      "age": 26,
      "sex": "F",
      "country": "korea",
      "religion": "none",
      "residental_info": {
        "city": "busan",
        "district": "해운대구",
        "lat": 35.1785969384698,
        "lng": 129.199700145244
      }
    },
    "infection_info": {
      "infection_place": {
        "name": "none",
        "lat": 36.9465596862886,
        "lng": 127.014450917838
      },
      "infection_type": "family",
      "infection_factor": 14,
      "isolation_place": {
        "name": "부산의료원",
        "lat": 35.1872965543253,
        "lng": 129.059224891471
      }
    },
    "route": [
      {
        "name": "청산곱창",
        "lat": 35.2012966416343,
        "lng": 129.119794946687,
        "start_time": "2020-02-19T09:30:00z",
        "end_time": "2020-02-19T09:30:00z"
      },
      {
        "name": "스타벅스 수영강변DT점",
        "lat": 35.20381358846,
        "lng": 129.119328991511,
        "start_time": "2020-02-19T11:30:00z",
        "end_time": "2020-02-19T11:30:00z"
      },
      {
        "name": "세븐일레븐 반여선수촌점",
        "lat": 35.203409582432,
        "lng": 129.122225736237,
        "start_time": "2020-02-19T13:50:00z",
        "end_time": "2020-02-19T14:30:00z"
      },
      {
        "name": "CU 반여선수촌점",
        "lat": 35.2035249529671,
        "lng": 129.123251985007,
        "start_time": "2020-02-19T13:50:00z",
        "end_time": "2020-02-19T14:30:00z"
      },
      {
        "name": "코로나19 해운대구보건소 선별진료소",
        "lat": 35.1641122033114,
        "lng": 129.178662018177,
        "start_time": "2020-02-21T10:40:00z",
        "end_time": "2020-02-21T10:40:00z"
      },
      {
        "name": "부산의료원",
        "lat": 35.1872965543253,
        "lng": 129.059224891471,
        "start_time": "2020-02-22T01:00:00z",
        "end_time": "2020-02-22T01:00:00z"
      }
    ]
  },
  "5": {
    "_id": "5e56984a0c5ef2060b4c0dd3",
    "patient_info": {
      "patient_id": 6,
      "age": 82,
      "sex": "F",
      "country": "korea",
      "religion": "none",
      "residental_info": {
        "city": "busan",
        "district": "연제구",
        "lat": 35.189951461926,
        "lng": 129.106876298355
      }
    },
    "infection_info": {
      "infection_place": {
        "name": "none",
        "lat": 36.9465596862886,
        "lng": 127.014450917838
      },
      "infection_type": "family",
      "infection_factor": 0,
      "isolation_place": {
        "name": "부산대학교병원",
        "lat": 35.1008243310038,
        "lng": 129.0187383154
      }
    },
    "route": [
      {
        "name": "부산대학교병원",
        "lat": 35.1008243310038,
        "lng": 129.0187383154,
        "start_time": "2020-02-22T14:30:00z",
        "end_time": "2020-02-22T14:30:00z"
      }
    ]
  },
  "6": {
    "_id": "5e569c270c5ef2060b4c0dd4",
    "patient_info": {
      "patient_id": 8,
      "age": 21,
      "sex": "M",
      "country": "korea",
      "religion": "Chatolic",
      "residental_info": {
        "city": "busan",
        "district": "동래구",
        "lat": 35.2212534758027,
        "lng": 129.082735370039
      }
    },
    "infection_info": {
      "infection_place": {
        "name": "온천교회",
        "lat": 35.21598177534,
        "lng": 129.077176124061
      },
      "infection_type": "religion",
      "infection_factor": 6,
      "isolation_place": {
        "name": "부산의료원",
        "lat": 35.1872965543253,
        "lng": 129.059224891471
      }
    },
    "route": [
      {
        "name": "플레르드샤르망",
        "lat": 35.230616970965,
        "lng": 129.086155361828,
        "start_time": "2020-02-19T04:00:00z",
        "end_time": "2020-02-19T04:30:00z"
      },
      {
        "name": "에블린 부산대점",
        "lat": 35.2306518777732,
        "lng": 129.086639498151,
        "start_time": "2020-02-19T04:40:00z",
        "end_time": "2020-02-19T05:40:00z"
      },
      {
        "name": "온천교회",
        "lat": 35.21598177534,
        "lng": 129.077176124061,
        "start_time": "2020-02-19T06:30:00z",
        "end_time": "2020-02-19T12:40:00z"
      },
      {
        "name": "시골통돼지볶음 부산대점",
        "lat": 35.2329902871812,
        "lng": 129.086277651569,
        "start_time": "2020-02-20T04:10:00z",
        "end_time": "2020-02-20T04:40:00z"
      },
      {
        "name": "이솝페이블",
        "lat": 35.2295730775968,
        "lng": 129.087117065437,
        "start_time": "2020-02-20T05:15:00z",
        "end_time": "2020-02-20T07:00:00z"
      },
      {
        "name": "동래봄산부인과의원",
        "lat": 35.2124826165236,
        "lng": 129.078382633795,
        "start_time": "2020-02-20T07:20:00z",
        "end_time": "2020-02-20T09:40:00z"
      },
      {
        "name": "온천교회",
        "lat": 35.21598177534,
        "lng": 129.077176124061,
        "start_time": "2020-02-20T09:55:00z",
        "end_time": "2020-02-20T12:00:00z"
      },
      {
        "name": "동방석유직영 푸른셀프주유소",
        "lat": 35.206224298449,
        "lng": 129.074222154639,
        "start_time": "2020-02-20T12:20:00z",
        "end_time": "2020-02-20T14:00:00z"
      },
      {
        "name": "온천교회",
        "lat": 35.21598177534,
        "lng": 129.077176124061,
        "start_time": "2020-02-21T00:10:00z",
        "end_time": "2020-02-21T03:30:00z"
      },
      {
        "name": "온천교회",
        "lat": 35.21598177534,
        "lng": 129.077176124061,
        "start_time": "2020-02-21T09:15:00z",
        "end_time": "2020-02-21T13:40:00z"
      },
      {
        "name": "동래구 보건소",
        "lat": 35.2114120201011,
        "lng": 129.079853036605,
        "start_time": "2020-02-22T00:05:00z",
        "end_time": "2020-02-22T01:30:00z"
      }
    ]
  },
  "7": {
    "_id": "5e56a0c80c5ef2060b4c0dd6",
    "patient_info": {
      "patient_id": 9,
      "age": 21,
      "sex": "M",
      "country": "korea",
      "religion": "Chatolic",
      "residental_info": {
        "city": "busan",
        "district": "동래구",
        "lat": 35.2212534758027,
        "lng": 129.082735370039
      }
    },
    "infection_info": {
      "infection_place": {
        "name": "온천교회",
        "lat": 35.21598177534,
        "lng": 129.077176124061
      },
      "infection_type": "religion",
      "infection_factor": 0,
      "isolation_place": {
        "name": "부산의료원",
        "lat": 35.1872965543253,
        "lng": 129.059224891471
      }
    },
    "route": [
      {
        "name": "미니스톱 동래아름점",
        "lat": 35.2130742344505,
        "lng": 129.078775445425,
        "start_time": "2020-02-19T23:40:00z",
        "end_time": "2020-02-20T00:05:00z"
      },
      {
        "name": "온천교회",
        "lat": 35.21598177534,
        "lng": 129.077176124061,
        "start_time": "2020-02-21T00:05:00z",
        "end_time": "2020-02-21T04:00:00z"
      },
      {
        "name": "온천교회",
        "lat": 35.21598177534,
        "lng": 129.077176124061,
        "start_time": "2020-02-21T10:35:00z",
        "end_time": "2020-02-21T13:10:00z"
      },
      {
        "name": "동심가마트 온천점",
        "lat": 35.2126675765117,
        "lng": 129.072431591862,
        "start_time": "2020-02-21T13:15:00z",
        "end_time": "2020-02-21T13:20:00z"
      },
      {
        "name": "코로나19 동래구보건소 선별진료소",
        "lat": 35.2114120201011,
        "lng": 129.079853036605,
        "start_time": "2020-02-22T00:10:00z",
        "end_time": "2020-02-22T01:20:00z"
      },
      {
        "name": "동래구 보건소",
        "lat": 35.2114120201011,
        "lng": 129.079853036605,
        "start_time": "2020-02-22T14:10:00z",
        "end_time": "2020-02-22T14:10:00z"
      }
    ]
  },
  "8": {
    "_id": "5e56a3850c5ef2060b4c0dd7",
    "patient_info": {
      "patient_id": 10,
      "age": 46,
      "sex": "M",
      "country": "korea",
      "religion": "Chatolic",
      "residental_info": {
        "city": "busan",
        "district": "동래구",
        "lat": 35.2212534758027,
        "lng": 129.082735370039
      }
    },
    "infection_info": {
      "infection_place": {
        "name": "온천교회",
        "lat": 35.21598177534,
        "lng": 129.077176124061
      },
      "infection_type": "religion",
      "infection_factor": 0,
      "isolation_place": {
        "name": "부산의료원",
        "lat": 35.1872965543253,
        "lng": 129.059224891471
      }
    },
    "route": [
      {
        "name": "동래역 부산1호선",
        "lat": 35.2056142450472,
        "lng": 129.078475435817,
        "start_time": "2020-02-17T23:21:00z",
        "end_time": "2020-02-17T23:21:00z"
      },
      {
        "name": "부산역",
        "lat": 35.1151082632134,
        "lng": 129.041420256627,
        "start_time": "2020-02-17T23:45:00z",
        "end_time": "2020-02-17T23:45:00z"
      },
      {
        "name": "밀양돼지국밥",
        "lat": 35.1134657673373,
        "lng": 129.03984826402,
        "start_time": "2020-02-18T10:42:00z",
        "end_time": "2020-02-18T10:42:00z"
      },
      {
        "name": "센텀스카이비즈",
        "lat": 35.1750592035945,
        "lng": 129.124710696678,
        "start_time": "2020-02-19T04:40:00z",
        "end_time": "2020-02-19T09:30:00z"
      },
      {
        "name": "센텀스카이비즈",
        "lat": 35.1750592035945,
        "lng": 129.124710696678,
        "start_time": "2020-02-20T01:30:00z",
        "end_time": "2020-02-20T03:30:00z"
      },
      {
        "name": "센텀스카이비즈",
        "lat": 35.1750592035945,
        "lng": 129.124710696678,
        "start_time": "2020-02-20T03:30:00z",
        "end_time": "2020-02-20T03:50:00z"
      },
      {
        "name": "센텀스카이비즈",
        "lat": 35.1750592035945,
        "lng": 129.124710696678,
        "start_time": "2020-02-20T03:50:00z",
        "end_time": "2020-02-20T09:30:00z"
      },
      {
        "name": "센텀가야밀면",
        "lat": 35.1751596401248,
        "lng": 129.124533317639,
        "start_time": "2020-02-20T09:30:00z",
        "end_time": "2020-02-20T09:50:00z"
      },
      {
        "name": "센텀스카이비즈",
        "lat": 35.1750592035945,
        "lng": 129.124710696678,
        "start_time": "2020-02-20T09:50:00z",
        "end_time": "2020-02-20T13:00:00z"
      },
      {
        "name": "코로나19 동래구보건소 선별진료소",
        "lat": 35.2114120201011,
        "lng": 129.079853036605,
        "start_time": "2020-02-22T05:00:00z",
        "end_time": "2020-02-22T05:20:00z"
      },
      {
        "name": "동래구 보건소",
        "lat": 35.2114120201011,
        "lng": 129.079853036605,
        "start_time": "2020-02-22T05:30:00z",
        "end_time": "2020-02-22T05:30:00z"
      }
    ]
  },
  "9": {
    "_id": "5e58083c0c5ef2060b4c0e31",
    "patient_info": {
      "patient_id": 11,
      "age": 27,
      "sex": "F",
      "country": "korea",
      "religion": "Chatolic",
      "residental_info": {
        "city": "busan",
        "district": "부산 북구",
        "lat": 35.2522475444927,
        "lng": 129.04203716797
      }
    },
    "infection_info": {
      "infection_place": {
        "name": "온천교회",
        "lat": 35.21598177534,
        "lng": 129.077176124061
      },
      "infection_type": "religion",
      "infection_factor": 10,
      "isolation_place": {
        "name": "부산의료원",
        "lat": 35.1872965543253,
        "lng": 129.059224891471
      }
    },
    "route": [
      {
        "name": "온천교회",
        "lat": 35.21598177534,
        "lng": 129.077176124061,
        "start_time": "2020-02-16T03:00:00z",
        "end_time": "2020-02-16T03:00:00z"
      },
      {
        "name": "온천교회",
        "lat": 35.21598177534,
        "lng": 129.077176124061,
        "start_time": "2020-02-17T04:30:00z",
        "end_time": "2020-02-17T04:30:00z"
      },
      {
        "name": "맛나감자탕 부산대점",
        "lat": 35.2313958030166,
        "lng": 129.088648652491,
        "start_time": "2020-02-17T04:50:00z",
        "end_time": "2020-02-17T06:00:00z"
      },
      {
        "name": "이솝페이블",
        "lat": 35.2295730775968,
        "lng": 129.087117065437,
        "start_time": "2020-02-17T06:05:00z",
        "end_time": "2020-02-17T07:30:00z"
      },
      {
        "name": "메가박스 부산대",
        "lat": 35.2301073652934,
        "lng": 129.088114804872,
        "start_time": "2020-02-17T07:32:00z",
        "end_time": "2020-02-17T08:43:00z"
      },
      {
        "name": "인제대학교 부산백병원",
        "lat": 35.1463238934834,
        "lng": 129.020835985136,
        "start_time": "2020-02-18T06:45:00z",
        "end_time": "2020-02-18T07:40:00z"
      },
      {
        "name": "우리마트 만덕점",
        "lat": 35.2106654665294,
        "lng": 129.037494535786,
        "start_time": "2020-02-18T09:30:00z",
        "end_time": "2020-02-18T10:00:00z"
      },
      {
        "name": "하동돌솥밥",
        "lat": 35.211439084092,
        "lng": 129.037790575298,
        "start_time": "2020-02-18T10:00:00z",
        "end_time": "2020-02-18T11:00:00z"
      },
      {
        "name": "도도라운지",
        "lat": 35.1532268574058,
        "lng": 129.061262462409,
        "start_time": "2020-02-19T07:30:00z",
        "end_time": "2020-02-19T09:00:00z"
      },
      {
        "name": "행복한밥상 미밥",
        "lat": 35.1535990782412,
        "lng": 129.061842421933,
        "start_time": "2020-02-19T09:00:00z",
        "end_time": "2020-02-19T10:10:00z"
      },
      {
        "name": "온천교회",
        "lat": 35.21598177534,
        "lng": 129.077176124061,
        "start_time": "2020-02-19T10:40:00z",
        "end_time": "2020-02-19T14:00:00z"
      },
      {
        "name": "훈혁",
        "lat": 35.1561218199345,
        "lng": 129.059966106859,
        "start_time": "2020-02-19T14:30:00z",
        "end_time": "2020-02-19T14:30:00z"
      },
      {
        "name": "훈혁",
        "lat": 35.1561218199345,
        "lng": 129.059966106859,
        "start_time": "2020-02-19T16:00:00z",
        "end_time": "2020-02-19T16:00:00z"
      },
      {
        "name": "훈혁",
        "lat": 35.1561218199345,
        "lng": 129.059966106859,
        "start_time": "2020-02-19T16:05:00z",
        "end_time": "2020-02-19T18:00:00z"
      },
      {
        "name": "미샤 부산덕천미샤점1",
        "lat": 35.2100007649389,
        "lng": 129.007163944408,
        "start_time": "2020-02-20T08:30:00z",
        "end_time": "2020-02-20T09:30:00z"
      },
      {
        "name": "엔에프커피엔케이크",
        "lat": 35.2084980307842,
        "lng": 129.009094558519,
        "start_time": "2020-02-20T09:40:00z",
        "end_time": "2020-02-20T12:00:00z"
      },
      {
        "name": "온천교회",
        "lat": 35.21598177534,
        "lng": 129.077176124061,
        "start_time": "2020-02-21T00:30:00z",
        "end_time": "2020-02-21T04:00:00z"
      },
      {
        "name": "커피요정",
        "lat": 35.2091209124399,
        "lng": 129.008921051499,
        "start_time": "2020-02-21T07:55:00z",
        "end_time": "2020-02-21T09:00:00z"
      },
      {
        "name": "골목",
        "lat": 35.2098650367189,
        "lng": 129.008175169289,
        "start_time": "2020-02-21T09:05:00z",
        "end_time": "2020-02-21T11:00:00z"
      },
      {
        "name": "어무이",
        "lat": 35.2099233881764,
        "lng": 129.006613030965,
        "start_time": "2020-02-21T11:05:00z",
        "end_time": "2020-02-21T12:00:00z"
      },
      {
        "name": "북구보건소",
        "lat": 35.239256670063,
        "lng": 129.014776200464,
        "start_time": "2020-02-22T02:15:00z",
        "end_time": "2020-02-22T05:40:00z"
      }
    ]
  },
  "10": {
    "_id": "5e5809d30c5ef2060b4c0e32",
    "patient_info": {
      "patient_id": 12,
      "age": 56,
      "sex": "F",
      "country": "korea",
      "religion": "ShinCheonJi",
      "residental_info": {
        "city": "busan",
        "district": "부산 남구",
        "lat": 35.1006495749289,
        "lng": 129.124487940263
      }
    },
    "infection_info": {
      "infection_place": {
        "name": "신천지",
        "lat": 35.8396958488919,
        "lng": 128.566554207975
      },
      "infection_type": "religion",
      "infection_factor": 17,
      "isolation_place": {
        "name": "부산의료원",
        "lat": 35.1872965543253,
        "lng": 129.059224891471
      }
    },
    "route": [
      {
        "name": "아시아드요양병원",
        "lat": 35.1868176808916,
        "lng": 129.078598029295,
        "start_time": "2020-02-19T23:50:00z",
        "end_time": "2020-02-20T09:00:00z"
      },
      {
        "name": "연산역 부산1호선",
        "lat": 35.1860379097119,
        "lng": 129.081603364757,
        "start_time": "2020-02-20T09:14:00z",
        "end_time": "2020-02-20T09:52:00z"
      },
      {
        "name": "수영역 부산2호선",
        "lat": 35.165680361287,
        "lng": 129.114809550972,
        "start_time": "2020-02-20T09:14:00z",
        "end_time": "2020-02-20T09:52:00z"
      },
      {
        "name": "대연역 부산2호선",
        "lat": 35.1351251955716,
        "lng": 129.092118524312,
        "start_time": "2020-02-20T09:14:00z",
        "end_time": "2020-02-20T09:52:00z"
      },
      {
        "name": "아시아드요양병원",
        "lat": 35.1868176808916,
        "lng": 129.078598029295,
        "start_time": "2020-02-20T23:50:00z",
        "end_time": "2020-02-21T09:00:00z"
      },
      {
        "name": "연산역 부산1호선",
        "lat": 35.1860379097119,
        "lng": 129.081603364757,
        "start_time": "2020-02-21T09:14:00z",
        "end_time": "2020-02-21T09:52:00z"
      },
      {
        "name": "수영역 부산2호선",
        "lat": 35.165680361287,
        "lng": 129.114809550972,
        "start_time": "2020-02-21T09:14:00z",
        "end_time": "2020-02-21T09:52:00z"
      },
      {
        "name": "대연역 부산2호선",
        "lat": 35.1351251955716,
        "lng": 129.092118524312,
        "start_time": "2020-02-21T09:14:00z",
        "end_time": "2020-02-21T09:52:00z"
      },
      {
        "name": "코로나19 남구보건소 선별진료소",
        "lat": 35.1360849697685,
        "lng": 129.084955518725,
        "start_time": "2020-02-22T03:00:00z",
        "end_time": "2020-02-22T04:00:00z"
      }
    ]
  },
  "11": {
    "_id": "5e580e010c5ef2060b4c0e33",
    "patient_info": {
      "patient_id": 13,
      "age": 26,
      "sex": "M",
      "country": "korea",
      "religion": "none",
      "residental_info": {
        "city": "busan",
        "district": "부산 서구",
        "lat": 35.076270900728,
        "lng": 129.023651491795
      }
    },
    "infection_info": {
      "infection_place": {
        "name": "대구",
        "lat": 35.8532271659164,
        "lng": 128.566581310322
      },
      "infection_type": "place",
      "infection_factor": 16,
      "isolation_place": {
        "name": "부산의료원",
        "lat": 35.1872965543253,
        "lng": 129.059224891471
      }
    },
    "route": [
      {
        "name": "엠브이PC",
        "lat": 35.0964881164524,
        "lng": 128.993460326155,
        "start_time": "2020-02-16T13:00:00z",
        "end_time": "2020-02-16T13:00:00z"
      },
      {
        "name": "착한멸치국수 괴정점",
        "lat": 35.0980378158716,
        "lng": 128.993699820728,
        "start_time": "2020-02-16T19:00:00z",
        "end_time": "2020-02-16T19:00:00z"
      },
      {
        "name": "이대운 이비인후과의원",
        "lat": 35.0995457823646,
        "lng": 128.989898671647,
        "start_time": "2020-02-20T02:00:00z",
        "end_time": "2020-02-20T02:00:00z"
      },
      {
        "name": "세인약국",
        "lat": 35.0995495296311,
        "lng": 128.989889990448,
        "start_time": "2020-02-20T03:00:00z",
        "end_time": "2020-02-20T03:00:00z"
      },
      {
        "name": "도담복전문점",
        "lat": 35.0985693817857,
        "lng": 128.991624987762,
        "start_time": "2020-02-20T03:30:00z",
        "end_time": "2020-02-20T03:30:00z"
      },
      {
        "name": "크레인PC 부산하단점",
        "lat": 35.1071385985367,
        "lng": 128.968189947196,
        "start_time": "2020-02-20T12:00:00z",
        "end_time": "2020-02-20T09:52:00z"
      },
      {
        "name": "리얼야구존 하단동점",
        "lat": 35.1088354106394,
        "lng": 128.967142864869,
        "start_time": "2020-02-20T14:00:00z",
        "end_time": "2020-02-19T15:20:00z"
      },
      {
        "name": "KT 씨엘 괴정점",
        "lat": 35.0993018177383,
        "lng": 128.993283219831,
        "start_time": "2020-02-20T15:25:00z",
        "end_time": "2020-02-20T16:50:00z"
      },
      {
        "name": "코로나19 서구보건소 선별진료소",
        "lat": 35.1074965333541,
        "lng": 129.01809577112,
        "start_time": "2020-02-22T02:00:00z",
        "end_time": "2020-02-22T02:00:00z"
      }
    ]
  },
  "12": {
    "_id": "5e5b50e50c5ef2060b4c0e54",
    "patient_info": {
      "patient_id": 14,
      "age": 32,
      "sex": "M",
      "country": "korea",
      "religion": "Chatolic",
      "residental_info": {
        "city": "busan",
        "district": "동래구",
        "lat": 35.2212534758027,
        "lng": 129.082735370039
      }
    },
    "infection_info": {
      "infection_place": {
        "name": "온천교회",
        "lat": 35.21598177534,
        "lng": 129.077176124061
      },
      "infection_type": "religion",
      "infection_factor": 31,
      "isolation_place": {
        "name": "부산의료원",
        "lat": 35.1872965543253,
        "lng": 129.059224891471
      }
    },
    "route": [
      {
        "name": "대한민국 정형외과병원",
        "lat": 35.2053540853783,
        "lng": 129.067621157713,
        "start_time": "2020-02-19T02:00:00z",
        "end_time": "2020-02-19T04:00:00z"
      },
      {
        "name": "미래영상의학과의원",
        "lat": 35.2010984229125,
        "lng": 129.085347242377,
        "start_time": "2020-02-19T07:00:00z",
        "end_time": "2020-02-19T09:20:00z"
      },
      {
        "name": "대한민국 정형외과병원",
        "lat": 35.2053540853783,
        "lng": 129.067621157713,
        "start_time": "2020-02-19T09:00:00z",
        "end_time": "2020-02-19T09:20:00z"
      },
      {
        "name": "미남정약국",
        "lat": 35.2053292389366,
        "lng": 129.067598568827,
        "start_time": "2020-02-19T09:20:00z",
        "end_time": "2020-02-19T09:30:00z"
      },
      {
        "name": "온천교회",
        "lat": 35.21598177534,
        "lng": 129.077176124061,
        "start_time": "2020-02-19T09:20:00z",
        "end_time": "2020-02-19T13:00:00z"
      },
      {
        "name": "고촌보쌈돼지국밥",
        "lat": 35.2058396207957,
        "lng": 129.078995019444,
        "start_time": "2020-02-19T13:00:00z",
        "end_time": "2020-02-19T13:00:00z"
      },
      {
        "name": "온천교회",
        "lat": 35.21598177534,
        "lng": 129.077176124061,
        "start_time": "2020-02-20T03:30:00z",
        "end_time": "2020-02-20T04:00:00z"
      },
      {
        "name": "문라운지",
        "lat": 35.1535932538432,
        "lng": 129.061337541979,
        "start_time": "2020-02-20T04:00:00z",
        "end_time": "2020-02-20T04:30:00z"
      },
      {
        "name": "갓파스시 서면점",
        "lat": 35.1555408142618,
        "lng": 129.061487635773,
        "start_time": "2020-02-20T04:40:00z",
        "end_time": "2020-02-20T05:20:00z"
      },
      {
        "name": "경성코페 서면점",
        "lat": 35.153351433959,
        "lng": 129.060932043985,
        "start_time": "2020-02-20T05:30:00z",
        "end_time": "2020-02-20T08:00:00z"
      },
      {
        "name": "코로나19 동래구보건소 선별진료소",
        "lat": 35.2114120201011,
        "lng": 129.079853036605,
        "start_time": "2020-02-21T00:00:00z",
        "end_time": "2020-02-21T01:00:00z"
      },
      {
        "name": "박약국",
        "lat": 35.2111000657528,
        "lng": 129.079757236063,
        "start_time": "2020-02-21T01:00:00z",
        "end_time": "2020-02-21T01:00:00z"
      },
      {
        "name": "동래봄산부인과의원",
        "lat": 35.2124826165236,
        "lng": 129.078382633795,
        "start_time": "2020-02-21T06:20:00z",
        "end_time": "2020-02-21T07:40:00z"
      },
      {
        "name": "참나무숯불구이",
        "lat": 35.2270138035983,
        "lng": 129.085654551395,
        "start_time": "2020-02-21T08:30:00z",
        "end_time": "2020-02-21T09:00:00z"
      },
      {
        "name": "코로나19 대동병원 선별진료소",
        "lat": 35.2042360924945,
        "lng": 129.080223332621,
        "start_time": "2020-02-22T00:00:00z",
        "end_time": "2020-02-22T00:00:00z"
      }
    ]
  },
  "13": {
    "_id": "5e5b529a0c5ef2060b4c0e55",
    "patient_info": {
      "patient_id": 15,
      "age": 19,
      "sex": "M",
      "country": "korea",
      "religion": "Chatolic",
      "residental_info": {
        "city": "busan",
        "district": "부산 동래구",
        "lat": 35.2212534758027,
        "lng": 129.082735370039
      }
    },
    "infection_info": {
      "infection_place": {
        "name": "온천교회",
        "lat": 35.21598177534,
        "lng": 129.077176124061
      },
      "infection_type": "religion",
      "infection_factor": 31,
      "isolation_place": {
        "name": "부산의료원",
        "lat": 35.1872965543253,
        "lng": 129.059224891471
      }
    },
    "route": [
      {
        "name": "더놀다주니어카페 사직점",
        "lat": 35.1958269358324,
        "lng": 129.060388742933,
        "start_time": "2020-02-20T06:00:00z",
        "end_time": "2020-02-20T10:00:00z"
      },
      {
        "name": "스타뮤직동전노래연습장",
        "lat": 35.1961825364855,
        "lng": 129.060674376208,
        "start_time": "2020-02-20T10:00:00z",
        "end_time": "2020-02-20T10:30:00z"
      },
      {
        "name": "삼성서울내과",
        "lat": 35.1985855975935,
        "lng": 129.05735590413,
        "start_time": "2020-02-21T06:00:00z",
        "end_time": "2020-02-21T07:00:00z"
      },
      {
        "name": "코로나19 동래구보건소 선별진료소",
        "lat": 35.2114120201011,
        "lng": 129.079853036605,
        "start_time": "2020-02-23T04:00:00z",
        "end_time": "2020-02-23T04:00:00z"
      }
    ]
  },
  "14": {
    "_id": "5e5b54840c5ef2060b4c0e56",
    "patient_info": {
      "patient_id": 16,
      "age": 33,
      "sex": "M",
      "country": "korea",
      "religion": "Chatolic",
      "residental_info": {
        "city": "busan",
        "district": "부산 금정구",
        "lat": 35.2454243820506,
        "lng": 129.063681936853
      }
    },
    "infection_info": {
      "infection_place": {
        "name": "온천교회",
        "lat": 35.21598177534,
        "lng": 129.077176124061
      },
      "infection_type": "religion",
      "infection_factor": 20,
      "isolation_place": {
        "name": "부산의료원",
        "lat": 35.1872965543253,
        "lng": 129.059224891471
      }
    },
    "route": [
      {
        "name": "온천장역 부산1호선",
        "lat": 35.2202705693472,
        "lng": 129.086435133803,
        "start_time": "2020-02-18T22:24:00z",
        "end_time": "2020-02-18T22:50:00z"
      },
      {
        "name": "부산역",
        "lat": 35.1151082632134,
        "lng": 129.041420256627,
        "start_time": "2020-02-18T22:24:00z",
        "end_time": "2020-02-18T22:50:00z"
      },
      {
        "name": "메리놀병원",
        "lat": 35.1075808290625,
        "lng": 129.032463779997,
        "start_time": "2020-02-18T23:15:00z",
        "end_time": "2020-02-19T08:30:00z"
      },
      {
        "name": "중앙역 부산1호선",
        "lat": 35.1037232153142,
        "lng": 129.036363924327,
        "start_time": "2020-02-19T08:45:00z",
        "end_time": "2020-02-19T09:15:00z"
      },
      {
        "name": "온천장역 부산1호선",
        "lat": 35.2202705693472,
        "lng": 129.086435133803,
        "start_time": "2020-02-19T08:45:00z",
        "end_time": "2020-02-19T09:15:00z"
      },
      {
        "name": "온천장역 부산1호선",
        "lat": 35.2202705693472,
        "lng": 129.086435133803,
        "start_time": "2020-02-19T22:24:00z",
        "end_time": "2020-02-19T22:50:00z"
      },
      {
        "name": "부산역",
        "lat": 35.1151082632134,
        "lng": 129.041420256627,
        "start_time": "2020-02-19T22:24:00z",
        "end_time": "2020-02-19T22:50:00z"
      },
      {
        "name": "메리놀병원",
        "lat": 35.1075808290625,
        "lng": 129.032463779997,
        "start_time": "2020-02-19T23:15:00z",
        "end_time": "2020-02-20T08:30:00z"
      },
      {
        "name": "중앙역 부산1호선",
        "lat": 35.1037232153142,
        "lng": 129.036363924327,
        "start_time": "2020-02-20T08:43:00z",
        "end_time": "2020-02-20T09:14:00z"
      },
      {
        "name": "명륜역 부산1호선",
        "lat": 35.2125752875352,
        "lng": 129.079702639717,
        "start_time": "2020-02-20T08:43:00z",
        "end_time": "2020-02-20T09:14:00z"
      },
      {
        "name": "온천교회",
        "lat": 35.21598177534,
        "lng": 129.077176124061,
        "start_time": "2020-02-20T09:05:00z",
        "end_time": "2020-02-20T09:10:00z"
      },
      {
        "name": "목화기사식당",
        "lat": 35.2163248078241,
        "lng": 129.079240484831,
        "start_time": "2020-02-20T09:10:00z",
        "end_time": "2020-02-20T10:00:00z"
      },
      {
        "name": "온천장역 부산1호선",
        "lat": 35.2202705693472,
        "lng": 129.086435133803,
        "start_time": "2020-02-20T22:29:00z",
        "end_time": "2020-02-20T22:55:00z"
      },
      {
        "name": "부산역",
        "lat": 35.1151082632134,
        "lng": 129.041420256627,
        "start_time": "2020-02-20T22:29:00z",
        "end_time": "2020-02-20T22:55:00z"
      },
      {
        "name": "메리놀병원",
        "lat": 35.1075808290625,
        "lng": 129.032463779997,
        "start_time": "2020-02-20T23:20:00z",
        "end_time": "2020-02-21T08:00:00z"
      },
      {
        "name": "부산역",
        "lat": 35.1151082632134,
        "lng": 129.041420256627,
        "start_time": "2020-02-21T08:21:00z",
        "end_time": "2020-02-21T08:49:00z"
      },
      {
        "name": "온천장역 부산1호선",
        "lat": 35.2202705693472,
        "lng": 129.086435133803,
        "start_time": "2020-02-21T08:21:00z",
        "end_time": "2020-02-21T08:49:00z"
      },
      {
        "name": "동래구 보건소",
        "lat": 35.2114120201011,
        "lng": 129.079853036605,
        "start_time": "2020-02-22T02:30:00z",
        "end_time": "2020-02-22T04:00:00z"
      }
    ]
  },
  "15": {
    "_id": "5e5b554e0c5ef2060b4c0e57",
    "patient_info": {
      "patient_id": 17,
      "age": 42,
      "sex": "M",
      "country": "korea",
      "religion": "none",
      "residental_info": {
        "city": "busan",
        "district": "부산 남구",
        "lat": 35.1006495749289,
        "lng": 129.124487940263
      }
    },
    "infection_info": {
      "infection_place": {
        "name": "청도",
        "lat": 35.6839809696742,
        "lng": 128.71878233032
      },
      "infection_type": "place",
      "infection_factor": 1,
      "isolation_place": {
        "name": "부산대학교병원",
        "lat": 35.1008243310038,
        "lng": 129.0187383154
      }
    },
    "route": [
      {
        "name": "부산대학교병원",
        "lat": 35.1008243310038,
        "lng": 129.0187383154,
        "start_time": "2020-02-23T14:00:00z",
        "end_time": "2020-02-23T14:00:00z"
      }
    ]
  },
  "16": {
    "_id": "5e5b573a0c5ef2060b4c0e58",
    "patient_info": {
      "patient_id": 18,
      "age": 26,
      "sex": "M",
      "country": "korea",
      "religion": "none",
      "residental_info": {
        "city": "busan",
        "district": "부산 사하구",
        "lat": 35.0465263488422,
        "lng": 128.962741189119
      }
    },
    "infection_info": {
      "infection_place": {
        "name": "대구",
        "lat": 35.8532271659164,
        "lng": 128.566581310322
      },
      "infection_type": "place",
      "infection_factor": 36,
      "isolation_place": {
        "name": "부산대학교병원",
        "lat": 35.1008243310038,
        "lng": 129.0187383154
      }
    },
    "route": [
      {
        "name": "CU 괴정오성점",
        "lat": 35.0945433532612,
        "lng": 128.991816516371,
        "start_time": "2020-02-20T12:30:00z",
        "end_time": "2020-02-20T12:30:00z"
      },
      {
        "name": "크레인PC 부산하단점",
        "lat": 35.1071385985367,
        "lng": 128.968189947196,
        "start_time": "2020-02-20T12:45:00z",
        "end_time": "2020-02-20T13:40:00z"
      },
      {
        "name": "리얼야구존 하단동점",
        "lat": 35.1088354106394,
        "lng": 128.967142864869,
        "start_time": "2020-02-20T14:05:00z",
        "end_time": "2020-02-19T15:20:00z"
      },
      {
        "name": "갓신 괴정점",
        "lat": 35.0986621307925,
        "lng": 128.992561482564,
        "start_time": "2020-02-20T15:25:00z",
        "end_time": "2020-02-20T16:50:00z"
      },
      {
        "name": "엠브이PC",
        "lat": 35.0964881164524,
        "lng": 128.993460326155,
        "start_time": "2020-02-22T07:25:00z",
        "end_time": "2020-02-22T11:42:00z"
      },
      {
        "name": "디디씨치킨 괴정점",
        "lat": 35.0945433532612,
        "lng": 128.991816516371,
        "start_time": "2020-02-22T11:45:00z",
        "end_time": "2020-02-22T13:41:00z"
      },
      {
        "name": "엠브이PC",
        "lat": 35.0964881164524,
        "lng": 128.993460326155,
        "start_time": "2020-02-22T13:45:00z",
        "end_time": "2020-02-21T15:30:00z"
      },
      {
        "name": "코로나19 사하구보건소 선별진료소",
        "lat": 35.0941572529117,
        "lng": 128.959553446034,
        "start_time": "2020-02-23T01:50:00z",
        "end_time": "2020-02-23T02:30:00z"
      }
    ]
  },
  "17": {
    "_id": "5e5b64ad0c5ef2060b4c0e5a",
    "patient_info": {
      "patient_id": 19,
      "age": 30,
      "sex": "F",
      "country": "korea",
      "religion": "Chatolic",
      "residental_info": {
        "city": "busan",
        "district": "부산 서구",
        "lat": 35.076270900728,
        "lng": 129.023651491795
      }
    },
    "infection_info": {
      "infection_place": {
        "name": "온천교회",
        "lat": 35.21598177534,
        "lng": 129.077176124061
      },
      "infection_type": "religion",
      "infection_factor": 14,
      "isolation_place": {
        "name": "부산의료원",
        "lat": 35.1872965543253,
        "lng": 129.059224891471
      }
    },
    "route": [
      {
        "name": "다이소 부산종합운동장점",
        "lat": 35.1918103459656,
        "lng": 129.066924893753,
        "start_time": "2020-02-20T09:50:00z",
        "end_time": "2020-02-20T09:56:00z"
      },
      {
        "name": "스타벅스 사직구장",
        "lat": 35.1961625651678,
        "lng": 129.06163556088,
        "start_time": "2020-02-20T10:10:00z",
        "end_time": "2020-02-20T10:45:00z"
      },
      {
        "name": "사직고기명가",
        "lat": 35.195531892241,
        "lng": 129.058821301042,
        "start_time": "2020-02-20T10:55:00z",
        "end_time": "2020-02-20T12:26:00z"
      },
      {
        "name": "올리브영 부산사직점",
        "lat": 35.196634042118,
        "lng": 129.060619913956,
        "start_time": "2020-02-20T12:32:00z",
        "end_time": "2020-02-20T12:46:00z"
      },
      {
        "name": "온천교회",
        "lat": 35.21598177534,
        "lng": 129.077176124061,
        "start_time": "2020-02-21T00:30:00z",
        "end_time": "2020-02-21T04:00:00z"
      },
      {
        "name": "303일상",
        "lat": 35.2169491516563,
        "lng": 129.077727864821,
        "start_time": "2020-02-21T04:05:00z",
        "end_time": "2020-02-21T05:21:00z"
      },
      {
        "name": "텐퍼센트커피 동래롯데점",
        "lat": 35.2149292901995,
        "lng": 129.076962629656,
        "start_time": "2020-02-21T05:23:00z",
        "end_time": "2020-02-21T05:30:00z"
      },
      {
        "name": "온천교회",
        "lat": 35.21598177534,
        "lng": 129.077176124061,
        "start_time": "2020-02-21T05:35:00z",
        "end_time": "2020-02-21T07:00:00z"
      },
      {
        "name": "코스트코 부산점",
        "lat": 35.1785511587873,
        "lng": 129.115292274793,
        "start_time": "2020-02-21T07:30:00z",
        "end_time": "2020-02-21T08:30:00z"
      },
      {
        "name": "민락회타운시장",
        "lat": 35.1555969417896,
        "lng": 129.123743488734,
        "start_time": "2020-02-21T08:50:00z",
        "end_time": "2020-02-21T09:30:00z"
      },
      {
        "name": "팔레드시즈",
        "lat": 35.1602233060212,
        "lng": 129.166584443581,
        "start_time": "2020-02-21T10:00:00z",
        "end_time": "2020-02-21T10:00:00z"
      },
      {
        "name": "팔레드시즈",
        "lat": 35.1602233060212,
        "lng": 129.166584443581,
        "start_time": "2020-02-20T15:00:00z",
        "end_time": "2020-02-21T00:30:00z"
      }
    ]
  },
  "18": {
    "_id": "5e5b65b30c5ef2060b4c0e5b",
    "patient_info": {
      "patient_id": 20,
      "age": 56,
      "sex": "F",
      "country": "korea",
      "religion": "none",
      "residental_info": {
        "city": "busan",
        "district": "부산 서구",
        "lat": 35.076270900728,
        "lng": 129.023651491795
      }
    },
    "infection_info": {
      "infection_place": {
        "name": "부산",
        "lat": 35.1585232170784,
        "lng": 129.159854668484
      },
      "infection_type": "person",
      "infection_factor": 19,
      "isolation_place": {
        "name": "부산대학교병원",
        "lat": 35.1008243310038,
        "lng": 129.0187383154
      }
    },
    "route": [
      {
        "name": "아모레퍼시픽 서부산특약점",
        "lat": 35.1017535502114,
        "lng": 128.977021621423,
        "start_time": "2020-02-19T00:30:00z",
        "end_time": "2020-02-19T01:30:00z"
      },
      {
        "name": "도담복전문점",
        "lat": 35.0985693817857,
        "lng": 128.991624987762,
        "start_time": "2020-02-20T03:30:00z",
        "end_time": "2020-02-20T04:10:00z"
      },
      {
        "name": "속튼튼원내과의원",
        "lat": 35.1096553170886,
        "lng": 129.017310062051,
        "start_time": "2020-02-20T09:10:00z",
        "end_time": "2020-02-20T09:40:00z"
      },
      {
        "name": "신대신약국",
        "lat": 35.1097359583027,
        "lng": 129.017392106775,
        "start_time": "2020-02-20T09:10:00z",
        "end_time": "2020-02-20T09:40:00z"
      },
      {
        "name": "아모레퍼시픽 서부산특약점",
        "lat": 35.1017535502114,
        "lng": 128.977021621423,
        "start_time": "2020-02-21T00:30:00z",
        "end_time": "2020-02-21T00:40:00z"
      },
      {
        "name": "부산사하우체국",
        "lat": 35.1009684893913,
        "lng": 128.979844938032,
        "start_time": "2020-02-21T01:00:00z",
        "end_time": "2020-02-21T01:30:00z"
      }
    ]
  },
  "19": {
    "_id": "5e5b68250c5ef2060b4c0e5c",
    "patient_info": {
      "patient_id": 21,
      "age": 18,
      "sex": "F",
      "country": "korea",
      "religion": "Chatolic",
      "residental_info": {
        "city": "busan",
        "district": "부산 강서구",
        "lat": 35.0228463926296,
        "lng": 128.817200975593
      }
    },
    "infection_info": {
      "infection_place": {
        "name": "온천교회",
        "lat": 35.21598177534,
        "lng": 129.077176124061
      },
      "infection_type": "religion",
      "infection_factor": 9,
      "isolation_place": {
        "name": "부산대학교병원",
        "lat": 35.1008243310038,
        "lng": 129.0187383154
      }
    },
    "route": [
      {
        "name": "비트노래연습장",
        "lat": 35.0854526122614,
        "lng": 128.877736277349,
        "start_time": "2020-02-18T11:05:00z",
        "end_time": "2020-02-18T12:00:00z"
      },
      {
        "name": "컴포즈커피 신호점",
        "lat": 35.0846937091592,
        "lng": 128.877683795894,
        "start_time": "2020-02-18T12:05:00z",
        "end_time": "2020-02-18T13:00:00z"
      },
      {
        "name": "컴포즈커피 신호점",
        "lat": 35.0846937091592,
        "lng": 128.877683795894,
        "start_time": "2020-02-19T05:40:00z",
        "end_time": "2020-02-19T05:50:00z"
      },
      {
        "name": "명호고등학교",
        "lat": 35.080375479008,
        "lng": 128.900045841732,
        "start_time": "2020-02-19T06:10:00z",
        "end_time": "2020-02-19T12:40:00z"
      },
      {
        "name": "컴포즈커피 신호점",
        "lat": 35.0846937091592,
        "lng": 128.877683795894,
        "start_time": "2020-02-20T06:50:00z",
        "end_time": "2020-02-20T07:00:00z"
      },
      {
        "name": "명호고등학교",
        "lat": 35.080375479008,
        "lng": 128.900045841732,
        "start_time": "2020-02-20T07:20:00z",
        "end_time": "2020-02-20T07:25:00z"
      },
      {
        "name": "다이소 부산명지오션시티점",
        "lat": 35.0811597004358,
        "lng": 128.903940580557,
        "start_time": "2020-02-20T07:30:00z",
        "end_time": "2020-02-20T08:00:00z"
      },
      {
        "name": "명호고등학교",
        "lat": 35.080375479008,
        "lng": 128.900045841732,
        "start_time": "2020-02-20T08:10:00z",
        "end_time": "2020-02-20T11:35:00z"
      },
      {
        "name": "컴포즈커피 신호점",
        "lat": 35.0846937091592,
        "lng": 128.877683795894,
        "start_time": "2020-02-21T04:40:00z",
        "end_time": "2020-02-21T04:45:00z"
      },
      {
        "name": "CU 명지두산위브점",
        "lat": 35.0821271364365,
        "lng": 128.89868317767,
        "start_time": "2020-02-21T07:00:00z",
        "end_time": "2020-02-21T07:20:00z"
      }
    ]
  },
  "20": {
    "_id": "5e5b68ed0c5ef2060b4c0e5d",
    "patient_info": {
      "patient_id": 22,
      "age": 21,
      "sex": "F",
      "country": "korea",
      "religion": "Chatolic",
      "residental_info": {
        "city": "busan",
        "district": "부산 강서구",
        "lat": 35.0228463926296,
        "lng": 128.817200975593
      }
    },
    "infection_info": {
      "infection_place": {
        "name": "온천교회",
        "lat": 35.21598177534,
        "lng": 129.077176124061
      },
      "infection_type": "religion",
      "infection_factor": 19,
      "isolation_place": {
        "name": "부산대학교병원",
        "lat": 35.1008243310038,
        "lng": 129.0187383154
      }
    },
    "route": [
      {
        "name": "스타필드시티 명지",
        "lat": 35.0932419550055,
        "lng": 128.918295757288,
        "start_time": "2020-02-19T08:30:00z",
        "end_time": "2020-02-19T09:40:00z"
      },
      {
        "name": "위앤대우리큰내과의원",
        "lat": 35.0840468369518,
        "lng": 128.903156922187,
        "start_time": "2020-02-20T04:20:00z",
        "end_time": "2020-02-20T05:30:00z"
      },
      {
        "name": "큰보람약국",
        "lat": 35.0840468369518,
        "lng": 128.903156922187,
        "start_time": "2020-02-20T05:30:00z",
        "end_time": "2020-02-20T05:45:00z"
      },
      {
        "name": "코로나19 강서구보건소 선별진료소",
        "lat": 35.1805425788658,
        "lng": 128.957066854015,
        "start_time": "2020-02-23T05:00:00z",
        "end_time": "2020-02-23T05:30:00z"
      }
    ]
  },
  "21": {
    "_id": "5e5b69780c5ef2060b4c0e5e",
    "patient_info": {
      "patient_id": 23,
      "age": 23,
      "sex": "M",
      "country": "korea",
      "religion": "Chatolic",
      "residental_info": {
        "city": "busan",
        "district": "부산 사하구",
        "lat": 35.0465263488422,
        "lng": 128.962741189119
      }
    },
    "infection_info": {
      "infection_place": {
        "name": "온천교회",
        "lat": 35.21598177534,
        "lng": 129.077176124061
      },
      "infection_type": "religion",
      "infection_factor": 1,
      "isolation_place": {
        "name": "부산대학교병원",
        "lat": 35.1008243310038,
        "lng": 129.0187383154
      }
    },
    "route": [
      {
        "name": "GS25 명륜중앙점",
        "lat": 35.2125633586695,
        "lng": 129.078718495405,
        "start_time": "2020-02-21T00:10:00z",
        "end_time": "2020-02-21T00:15:00z"
      },
      {
        "name": "온천교회",
        "lat": 35.21598177534,
        "lng": 129.077176124061,
        "start_time": "2020-02-21T00:30:00z",
        "end_time": "2020-02-21T00:30:00z"
      },
      {
        "name": "온천교회",
        "lat": 35.21598177534,
        "lng": 129.077176124061,
        "start_time": "2020-02-22T00:30:00z",
        "end_time": "2020-02-22T00:30:00z"
      },
      {
        "name": "코로나19 사하구보건소 선별진료소",
        "lat": 35.0941572529117,
        "lng": 128.959553446034,
        "start_time": "2020-02-23T01:30:00z",
        "end_time": "2020-02-23T02:40:00z"
      }
    ]
  },
  "22": {
    "_id": "5e5b69fd0c5ef2060b4c0e5f",
    "patient_info": {
      "patient_id": 24,
      "age": 27,
      "sex": "F",
      "country": "korea",
      "religion": "ShinCheonJi",
      "residental_info": {
        "city": "busan",
        "district": "부산 사하구",
        "lat": 35.0465263488422,
        "lng": 128.962741189119
      }
    },
    "infection_info": {
      "infection_place": {
        "name": "신천지",
        "lat": 35.8396958488919,
        "lng": 128.566554207975
      },
      "infection_type": "religion",
      "infection_factor": 2,
      "isolation_place": {
        "name": "부산대학교병원",
        "lat": 35.1008243310038,
        "lng": 129.0187383154
      }
    },
    "route": [
      {
        "name": "코로나19 사하구보건소 선별진료소",
        "lat": 35.0941572529117,
        "lng": 128.959553446034,
        "start_time": "2020-02-21T06:20:00z",
        "end_time": "2020-02-21T06:20:00z"
      }
    ]
  },
  "23": {
    "_id": "5e5b6abb0c5ef2060b4c0e60",
    "patient_info": {
      "patient_id": 25,
      "age": 44,
      "sex": "F",
      "country": "korea",
      "religion": "none",
      "residental_info": {
        "city": "busan",
        "district": "부산 해운대구",
        "lat": 35.1585232170784,
        "lng": 129.159854668484
      }
    },
    "infection_info": {
      "infection_place": {
        "name": "부산",
        "lat": 35.1585232170784,
        "lng": 129.159854668484
      },
      "infection_type": "person",
      "infection_factor": 9,
      "isolation_place": {
        "name": "부산대학교병원",
        "lat": 35.1008243310038,
        "lng": 129.0187383154
      }
    },
    "route": [
      {
        "name": "장산초등학교",
        "lat": 35.2001215785345,
        "lng": 129.119896144689,
        "start_time": "2020-02-21T01:20:00z",
        "end_time": "2020-02-21T01:40:00z"
      },
      {
        "name": "반여1동주민센터",
        "lat": 35.2011025051349,
        "lng": 129.118942343241,
        "start_time": "2020-02-21T02:00:00z",
        "end_time": "2020-02-21T02:20:00z"
      },
      {
        "name": "탑마트 반여점",
        "lat": 35.204132615389,
        "lng": 129.119842323366,
        "start_time": "2020-02-21T12:00:00z",
        "end_time": "2020-02-21T12:20:00z"
      },
      {
        "name": "코로나19 해운대구보건소 선별진료소",
        "lat": 35.1641122033114,
        "lng": 129.178662018177,
        "start_time": "2020-02-23T06:00:00z",
        "end_time": "2020-02-23T06:00:00z"
      }
    ]
  },
  "24": {
    "_id": "5e5b6b570c5ef2060b4c0e61",
    "patient_info": {
      "patient_id": 26,
      "age": 27,
      "sex": "M",
      "country": "korea",
      "religion": "Chatolic",
      "residental_info": {
        "city": "busan",
        "district": "부산 해운대구",
        "lat": 35.1585232170784,
        "lng": 129.159854668484
      }
    },
    "infection_info": {
      "infection_place": {
        "name": "온천교회",
        "lat": 35.21598177534,
        "lng": 129.077176124061
      },
      "infection_type": "religion",
      "infection_factor": 7,
      "isolation_place": {
        "name": "부산대학교병원",
        "lat": 35.1008243310038,
        "lng": 129.0187383154
      }
    },
    "route": [
      {
        "name": "스타벅스 명륜역점",
        "lat": 35.2125757942975,
        "lng": 129.078309245104,
        "start_time": "2020-02-20T23:30:00z",
        "end_time": "2020-02-21T03:00:00z"
      },
      {
        "name": "목화기사식당",
        "lat": 35.2163248078241,
        "lng": 129.079240484831,
        "start_time": "2020-02-21T03:10:00z",
        "end_time": "2020-02-21T03:40:00z"
      },
      {
        "name": "스타벅스 명륜역점",
        "lat": 35.2125757942975,
        "lng": 129.078309245104,
        "start_time": "2020-02-21T04:00:00z",
        "end_time": "2020-02-21T10:30:00z"
      },
      {
        "name": "GS25 명륜중앙점",
        "lat": 35.2125633586695,
        "lng": 129.078718495405,
        "start_time": "2020-02-21T10:40:00z",
        "end_time": "2020-02-21T11:00:00z"
      },
      {
        "name": "코로나19 해운대구보건소 선별진료소",
        "lat": 35.1641122033114,
        "lng": 129.178662018177,
        "start_time": "2020-02-23T02:20:00z",
        "end_time": "2020-02-23T02:20:00z"
      }
    ]
  },
  "25": {
    "_id": "5e5b6de30c5ef2060b4c0e62",
    "patient_info": {
      "patient_id": 27,
      "age": 28,
      "sex": "F",
      "country": "korea",
      "religion": "none",
      "residental_info": {
        "city": "busan",
        "district": "부산 수영구",
        "lat": 35.1531932736837,
        "lng": 129.118976093583
      }
    },
    "infection_info": {
      "infection_place": {
        "name": "대구",
        "lat": 35.8532271659164,
        "lng": 128.566581310322
      },
      "infection_type": "place",
      "infection_factor": 8,
      "isolation_place": {
        "name": "부산대학교병원",
        "lat": 35.1008243310038,
        "lng": 129.0187383154
      }
    },
    "route": [
      {
        "name": "투썸플레이스 부산광안역점",
        "lat": 35.1574409319574,
        "lng": 129.113427588173,
        "start_time": "2020-02-20T02:00:00z",
        "end_time": "2020-02-20T10:00:00z"
      },
      {
        "name": "박찬복내과의원",
        "lat": 35.1576629402204,
        "lng": 129.1127892245,
        "start_time": "2020-02-21T04:30:00z",
        "end_time": "2020-02-21T05:00:00z"
      },
      {
        "name": "코로나19 수영구보건소 선별진료소",
        "lat": 35.1626441095325,
        "lng": 129.113431651024,
        "start_time": "2020-02-21T05:20:00z",
        "end_time": "2020-02-21T05:40:00z"
      },
      {
        "name": "투썸플레이스 부산광안역점",
        "lat": 35.1574409319574,
        "lng": 129.113427588173,
        "start_time": "2020-02-21T06:00:00z",
        "end_time": "2020-02-21T08:40:00z"
      },
      {
        "name": "무무돈까스 광안점",
        "lat": 35.157377872729,
        "lng": 129.114045922054,
        "start_time": "2020-02-21T09:00:00z",
        "end_time": "2020-02-21T10:00:00z"
      },
      {
        "name": "투썸플레이스 부산광안역점",
        "lat": 35.1574409319574,
        "lng": 129.113427588173,
        "start_time": "2020-02-21T10:20:00z",
        "end_time": "2020-02-21T14:00:00z"
      },
      {
        "name": "코로나19 좋은강안병원 선별진료소",
        "lat": 35.1501580801167,
        "lng": 129.110725523948,
        "start_time": "2020-02-23T02:45:00z",
        "end_time": "2020-02-23T03:30:00z"
      }
    ]
  },
  "26": {
    "_id": "5e5b6ed20c5ef2060b4c0e63",
    "patient_info": {
      "patient_id": 28,
      "age": 65,
      "sex": "F",
      "country": "korea",
      "religion": "none",
      "residental_info": {
        "city": "busan",
        "district": "부산 수영구",
        "lat": 35.1531932736837,
        "lng": 129.118976093583
      }
    },
    "infection_info": {
      "infection_place": {
        "name": "부산",
        "lat": 35.1585232170784,
        "lng": 129.159854668484
      },
      "infection_type": "person",
      "infection_factor": 6,
      "isolation_place": {
        "name": "부산대학교병원",
        "lat": 35.1008243310038,
        "lng": 129.0187383154
      }
    },
    "route": [
      {
        "name": "한국교양문화노래교실",
        "lat": 35.1689842825378,
        "lng": 129.116545677641,
        "start_time": "2020-02-21T07:00:00z",
        "end_time": "2020-02-21T11:30:00z"
      },
      {
        "name": "한국교양문화노래교실",
        "lat": 35.1689842825378,
        "lng": 129.116545677641,
        "start_time": "2020-02-22T06:00:00z",
        "end_time": "2020-02-22T08:30:00z"
      },
      {
        "name": "이마트트레이더스 서면점",
        "lat": 35.1638844259765,
        "lng": 129.052642621379,
        "start_time": "2020-02-22T09:00:00z",
        "end_time": "2020-02-22T10:00:00z"
      },
      {
        "name": "코로나19 좋은강안병원 선별진료소",
        "lat": 35.1501580801167,
        "lng": 129.110725523948,
        "start_time": "2020-02-23T01:40:00z",
        "end_time": "2020-02-23T03:00:00z"
      }
    ]
  },
  "27": {
    "_id": "5e5b701a0c5ef2060b4c0e64",
    "patient_info": {
      "patient_id": 29,
      "age": 21,
      "sex": "M",
      "country": "korea",
      "religion": "none",
      "residental_info": {
        "city": "busan",
        "district": "부산 동래구",
        "lat": 35.2212534758027,
        "lng": 129.082735370039
      }
    },
    "infection_info": {
      "infection_place": {
        "name": "none",
        "lat": 36.9465596862886,
        "lng": 127.014450917838
      },
      "infection_type": "none",
      "infection_factor": 27,
      "isolation_place": {
        "name": "부산대학교병원",
        "lat": 35.1008243310038,
        "lng": 129.0187383154
      }
    },
    "route": [
      {
        "name": "부산지방병무청",
        "lat": 35.1734345402495,
        "lng": 129.103596406532,
        "start_time": "2020-02-20T23:44:00z",
        "end_time": "2020-02-21T00:53:00z"
      },
      {
        "name": "세븐스타코인노래연습장 양정역점",
        "lat": 35.1697204658319,
        "lng": 129.069366509961,
        "start_time": "2020-02-21T01:30:00z",
        "end_time": "2020-02-21T02:50:00z"
      },
      {
        "name": "세븐스타코인노래연습장 양정역점",
        "lat": 35.1697204658319,
        "lng": 129.069366509961,
        "start_time": "2020-02-21T02:50:00z",
        "end_time": "2020-02-21T09:00:00z"
      },
      {
        "name": "3POP PC방",
        "lat": 35.1962705526415,
        "lng": 129.061221118765,
        "start_time": "2020-02-21T09:30:00z",
        "end_time": "2020-02-21T11:30:00z"
      },
      {
        "name": "세븐스타코인노래연습장 양정역점",
        "lat": 35.1697204658319,
        "lng": 129.069366509961,
        "start_time": "2020-02-22T03:20:00z",
        "end_time": "2020-02-22T05:20:00z"
      },
      {
        "name": "우정 서면2호점",
        "lat": 35.1562060048052,
        "lng": 129.062009172214,
        "start_time": "2020-02-22T05:20:00z",
        "end_time": "2020-02-22T06:00:00z"
      },
      {
        "name": "세븐스타코인노래연습장 양정역점",
        "lat": 35.1697204658319,
        "lng": 129.069366509961,
        "start_time": "2020-02-22T06:00:00z",
        "end_time": "2020-02-22T09:00:00z"
      },
      {
        "name": "연제구보건소",
        "lat": 35.1768314143914,
        "lng": 129.079103192178,
        "start_time": "2020-02-22T15:00:00z",
        "end_time": "2020-02-22T15:00:00z"
      }
    ]
  },
  "28": {
    "_id": "5e5b72500c5ef2060b4c0e65",
    "patient_info": {
      "patient_id": 30,
      "age": 27,
      "sex": "M",
      "country": "korea",
      "religion": "Chatolic",
      "residental_info": {
        "city": "busan",
        "district": "부산 금정구",
        "lat": 35.2454243820506,
        "lng": 129.063681936853
      }
    },
    "infection_info": {
      "infection_place": {
        "name": "온천교회",
        "lat": 35.21598177534,
        "lng": 129.077176124061
      },
      "infection_type": "religion",
      "infection_factor": 21,
      "isolation_place": {
        "name": "부산대학교병원",
        "lat": 35.1008243310038,
        "lng": 129.0187383154
      }
    },
    "route": [
      {
        "name": "범어사역 부산1호선",
        "lat": 35.2730641846992,
        "lng": 129.092641133427,
        "start_time": "2020-02-20T22:58:00z",
        "end_time": "2020-02-20T23:44:00z"
      },
      {
        "name": "중앙역 부산1호선",
        "lat": 35.1037232153142,
        "lng": 129.036363924327,
        "start_time": "2020-02-20T22:58:00z",
        "end_time": "2020-02-20T23:44:00z"
      },
      {
        "name": "동진선박(주)",
        "lat": 35.1069291998785,
        "lng": 129.035421643434,
        "start_time": "2020-02-20T23:48:00z",
        "end_time": "2020-02-21T03:00:00z"
      },
      {
        "name": "청진동 청국장",
        "lat": 35.1068579377374,
        "lng": 129.037731553488,
        "start_time": "2020-02-21T03:10:00z",
        "end_time": "2020-02-21T03:50:00z"
      },
      {
        "name": "동진선박(주)",
        "lat": 35.1069291998785,
        "lng": 129.035421643434,
        "start_time": "2020-02-21T04:00:00z",
        "end_time": "2020-02-21T09:30:00z"
      },
      {
        "name": "팔레드시즈",
        "lat": 35.1602233060212,
        "lng": 129.166584443581,
        "start_time": "2020-02-21T10:30:00z",
        "end_time": "2020-02-21T10:30:00z"
      },
      {
        "name": "팔레드시즈",
        "lat": 35.1602233060212,
        "lng": 129.166584443581,
        "start_time": "2020-02-21T15:00:00z",
        "end_time": "2020-02-22T01:30:00z"
      },
      {
        "name": "금정구보건소",
        "lat": 35.2420536771383,
        "lng": 129.092454562246,
        "start_time": "2020-02-23T02:40:00z",
        "end_time": "2020-02-23T03:40:00z"
      }
    ]
  },
  "29": {
    "_id": "5e5b80380c5ef2060b4c0e66",
    "patient_info": {
      "patient_id": 31,
      "age": 22,
      "sex": "F",
      "country": "korea",
      "religion": "Chatolic",
      "residental_info": {
        "city": "busan",
        "district": "부산 동래구",
        "lat": 35.2212534758027,
        "lng": 129.082735370039
      }
    },
    "infection_info": {
      "infection_place": {
        "name": "온천교회",
        "lat": 35.21598177534,
        "lng": 129.077176124061
      },
      "infection_type": "religion",
      "infection_factor": 3,
      "isolation_place": {
        "name": "부산백병원",
        "lat": 35.1463238934834,
        "lng": 129.020835985136
      }
    },
    "route": [
      {
        "name": "롯데마트 동래점",
        "lat": 35.2122177252256,
        "lng": 129.077225142954,
        "start_time": "2020-02-21T08:00:00z",
        "end_time": "2020-02-21T09:00:00z"
      },
      {
        "name": "삼진어묵 동래점",
        "lat": 35.2117990813168,
        "lng": 129.077464824672,
        "start_time": "2020-02-21T09:05:00z",
        "end_time": "2020-02-21T09:20:00z"
      },
      {
        "name": "코로나19 동래구보건소 선별진료소",
        "lat": 35.2114120201011,
        "lng": 129.079853036605,
        "start_time": "2020-02-23T03:00:00z",
        "end_time": "2020-02-23T05:30:00z"
      }
    ]
  },
  "30": {
    "_id": "5e5b80980c5ef2060b4c0e67",
    "patient_info": {
      "patient_id": 32,
      "age": 21,
      "sex": "F",
      "country": "korea",
      "religion": "Chatolic",
      "residental_info": {
        "city": "busan",
        "district": "부산 동래구",
        "lat": 35.2212534758027,
        "lng": 129.082735370039
      }
    },
    "infection_info": {
      "infection_place": {
        "name": "온천교회",
        "lat": 35.21598177534,
        "lng": 129.077176124061
      },
      "infection_type": "religion",
      "infection_factor": 0,
      "isolation_place": {
        "name": "부산백병원",
        "lat": 35.1463238934834,
        "lng": 129.020835985136
      }
    },
    "route": [
      {
        "name": "동래구 보건소",
        "lat": 35.2114120201011,
        "lng": 129.079853036605,
        "start_time": "2020-02-22T05:00:00z",
        "end_time": "2020-02-22T07:30:00z"
      },
      {
        "name": "동래구 보건소",
        "lat": 35.2114120201011,
        "lng": 129.079853036605,
        "start_time": "2020-02-23T05:10:00z",
        "end_time": "2020-02-23T07:15:00z"
      }
    ]
  },
  "31": {
    "_id": "5e5b82870c5ef2060b4c0e68",
    "patient_info": {
      "patient_id": 33,
      "age": 20,
      "sex": "F",
      "country": "korea",
      "religion": "Chatolic",
      "residental_info": {
        "city": "busan",
        "district": "부산 동래구",
        "lat": 35.2212534758027,
        "lng": 129.082735370039
      }
    },
    "infection_info": {
      "infection_place": {
        "name": "온천교회",
        "lat": 35.21598177534,
        "lng": 129.077176124061
      },
      "infection_type": "religion",
      "infection_factor": 0,
      "isolation_place": {
        "name": "부산백병원",
        "lat": 35.1463238934834,
        "lng": 129.020835985136
      }
    },
    "route": [
      {
        "name": "부산우리들병원",
        "lat": 35.2219409244058,
        "lng": 129.085515914121,
        "start_time": "2020-02-21T23:00:00z",
        "end_time": "2020-02-22T04:00:00z"
      },
      {
        "name": "KB국민은행ATM 온천동점",
        "lat": 35.2220247396404,
        "lng": 129.08462635179,
        "start_time": "2020-02-22T04:10:00z",
        "end_time": "2020-02-22T04:15:00z"
      },
      {
        "name": "도리마리 본점",
        "lat": 35.2210901491019,
        "lng": 129.084632092625,
        "start_time": "2020-02-22T04:16:00z",
        "end_time": "2020-02-22T04:50:00z"
      },
      {
        "name": "탑세일마트 온천점",
        "lat": 35.2155989355679,
        "lng": 129.077429905635,
        "start_time": "2020-02-22T13:15:00z",
        "end_time": "2020-02-22T13:25:00z"
      },
      {
        "name": "코로나19 동래구보건소 선별진료소",
        "lat": 35.2114120201011,
        "lng": 129.079853036605,
        "start_time": "2020-02-23T06:00:00z",
        "end_time": "2020-02-23T06:00:00z"
      }
    ]
  },
  "32": {
    "_id": "5e5b85d00c5ef2060b4c0e69",
    "patient_info": {
      "patient_id": 34,
      "age": 26,
      "sex": "M",
      "country": "korea",
      "religion": "Chatolic",
      "residental_info": {
        "city": "busan",
        "district": "부산 동래구",
        "lat": 35.2212534758027,
        "lng": 129.082735370039
      }
    },
    "infection_info": {
      "infection_place": {
        "name": "온천교회",
        "lat": 35.21598177534,
        "lng": 129.077176124061
      },
      "infection_type": "religion",
      "infection_factor": 26,
      "isolation_place": {
        "name": "부산의료원",
        "lat": 35.1872965543253,
        "lng": 129.059224891471
      }
    },
    "route": [
      {
        "name": "코로나19 동래구보건소 선별진료소",
        "lat": 35.2114120201011,
        "lng": 129.079853036605,
        "start_time": "2020-02-22T01:35:00z",
        "end_time": "2020-02-22T01:35:00z"
      }
    ]
  },
  "33": {
    "_id": "5e5b86240c5ef2060b4c0e6a",
    "patient_info": {
      "patient_id": 35,
      "age": 20,
      "sex": "F",
      "country": "korea",
      "religion": "Chatolic",
      "residental_info": {
        "city": "busan",
        "district": "부산 동래구",
        "lat": 35.2212534758027,
        "lng": 129.082735370039
      }
    },
    "infection_info": {
      "infection_place": {
        "name": "온천교회",
        "lat": 35.21598177534,
        "lng": 129.077176124061
      },
      "infection_type": "religion",
      "infection_factor": 3,
      "isolation_place": {
        "name": "부산대학교병원",
        "lat": 35.1008243310038,
        "lng": 129.0187383154
      }
    },
    "route": [
      {
        "name": "코로나19 동래구보건소 선별진료소",
        "lat": 35.2114120201011,
        "lng": 129.079853036605,
        "start_time": "2020-02-23T01:30:00z",
        "end_time": "2020-02-23T01:50:00z"
      }
    ]
  },
  "34": {
    "_id": "5e5b882d0c5ef2060b4c0e6b",
    "patient_info": {
      "patient_id": 36,
      "age": 28,
      "sex": "F",
      "country": "korea",
      "religion": "Chatolic",
      "residental_info": {
        "city": "busan",
        "district": "부산 동래구",
        "lat": 35.2212534758027,
        "lng": 129.082735370039
      }
    },
    "infection_info": {
      "infection_place": {
        "name": "온천교회",
        "lat": 35.21598177534,
        "lng": 129.077176124061
      },
      "infection_type": "religion",
      "infection_factor": 12,
      "isolation_place": {
        "name": "부산대학교병원",
        "lat": 35.1008243310038,
        "lng": 129.0187383154
      }
    },
    "route": [
      {
        "name": "동래구 보건소",
        "lat": 35.2114120201011,
        "lng": 129.079853036605,
        "start_time": "2020-02-17T05:50:00z",
        "end_time": "2020-02-17T05:50:00z"
      },
      {
        "name": "박약국",
        "lat": 35.2111000657528,
        "lng": 129.079757236063,
        "start_time": "2020-02-17T06:00:00z",
        "end_time": "2020-02-17T06:12:00z"
      },
      {
        "name": "쓰리제이에듀 부산진구지점",
        "lat": 35.174508355077,
        "lng": 129.063397709035,
        "start_time": "2020-02-17T06:40:00z",
        "end_time": "2020-02-17T07:40:00z"
      },
      {
        "name": "정내과의원",
        "lat": 35.1745919624539,
        "lng": 129.064413937912,
        "start_time": "2020-02-17T07:50:00z",
        "end_time": "2020-02-17T08:00:00z"
      },
      {
        "name": "참사람 약국",
        "lat": 35.1746031457965,
        "lng": 129.06439227019,
        "start_time": "2020-02-17T08:00:00z",
        "end_time": "2020-02-17T08:13:00z"
      },
      {
        "name": "쓰리제이에듀 부산진구지점",
        "lat": 35.174508355077,
        "lng": 129.063397709035,
        "start_time": "2020-02-17T08:20:00z",
        "end_time": "2020-02-17T13:00:00z"
      },
      {
        "name": "쓰리제이에듀 부산진구지점",
        "lat": 35.174508355077,
        "lng": 129.063397709035,
        "start_time": "2020-02-18T07:00:00z",
        "end_time": "2020-02-18T13:00:00z"
      },
      {
        "name": "CU 양정현대프라자점",
        "lat": 35.174508355077,
        "lng": 129.063397709035,
        "start_time": "2020-02-18T13:10:00z",
        "end_time": "2020-02-18T13:20:00z"
      },
      {
        "name": "GS25 S부산명륜역점",
        "lat": 35.212432599914,
        "lng": 129.079615548673,
        "start_time": "2020-02-19T06:20:00z",
        "end_time": "2020-02-19T06:25:00z"
      },
      {
        "name": "양정역 부산1호선",
        "lat": 35.1727945202073,
        "lng": 129.071093977334,
        "start_time": "2020-02-19T06:30:00z",
        "end_time": "2020-02-19T06:30:00z"
      },
      {
        "name": "쓰리제이에듀 부산진구지점",
        "lat": 35.174508355077,
        "lng": 129.063397709035,
        "start_time": "2020-02-19T06:50:00z",
        "end_time": "2020-02-19T13:10:00z"
      },
      {
        "name": "이화동고로케",
        "lat": 35.2051432442233,
        "lng": 129.080083982121,
        "start_time": "2020-02-19T14:00:00z",
        "end_time": "2020-02-19T14:00:00z"
      },
      {
        "name": "양정역 부산1호선",
        "lat": 35.1727945202073,
        "lng": 129.071093977334,
        "start_time": "2020-02-20T07:00:00z",
        "end_time": "2020-02-20T07:00:00z"
      },
      {
        "name": "쓰리제이에듀 부산진구지점",
        "lat": 35.174508355077,
        "lng": 129.063397709035,
        "start_time": "2020-02-20T07:00:00z",
        "end_time": "2020-02-20T07:15:00z"
      },
      {
        "name": "온천교회",
        "lat": 35.21598177534,
        "lng": 129.077176124061,
        "start_time": "2020-02-20T11:00:00z",
        "end_time": "2020-02-20T12:00:00z"
      },
      {
        "name": "온천교회",
        "lat": 35.21598177534,
        "lng": 129.077176124061,
        "start_time": "2020-02-21T00:30:00z",
        "end_time": "2020-02-21T03:00:00z"
      },
      {
        "name": "온천교회",
        "lat": 35.21598177534,
        "lng": 129.077176124061,
        "start_time": "2020-02-21T06:25:00z",
        "end_time": "2020-02-21T06:40:00z"
      },
      {
        "name": "다세움교회",
        "lat": 35.0629081216603,
        "lng": 128.979159789721,
        "start_time": "2020-02-21T09:30:00z",
        "end_time": "2020-02-21T13:00:00z"
      },
      {
        "name": "동래구 보건소",
        "lat": 35.2114120201011,
        "lng": 129.079853036605,
        "start_time": "2020-02-23T06:10:00z",
        "end_time": "2020-02-23T07:30:00z"
      }
    ]
  },
  "35": {
    "_id": "5e5b896d0c5ef2060b4c0e6c",
    "patient_info": {
      "patient_id": 37,
      "age": 28,
      "sex": "M",
      "country": "korea",
      "religion": "Chatolic",
      "residental_info": {
        "city": "busan",
        "district": "부산 금정구",
        "lat": 35.2454243820506,
        "lng": 129.063681936853
      }
    },
    "infection_info": {
      "infection_place": {
        "name": "온천교회",
        "lat": 35.21598177534,
        "lng": 129.077176124061
      },
      "infection_type": "religion",
      "infection_factor": 21,
      "isolation_place": {
        "name": "부산대학교병원",
        "lat": 35.1008243310038,
        "lng": 129.0187383154
      }
    },
    "route": [
      {
        "name": "금정회관",
        "lat": 35.2353722605765,
        "lng": 129.080245062203,
        "start_time": "2020-02-19T03:56:00z",
        "end_time": "2020-02-19T04:20:00z"
      },
      {
        "name": "온천교회",
        "lat": 35.21598177534,
        "lng": 129.077176124061,
        "start_time": "2020-02-19T11:30:00z",
        "end_time": "2020-02-19T12:20:00z"
      },
      {
        "name": "금정회관",
        "lat": 35.2353722605765,
        "lng": 129.080245062203,
        "start_time": "2020-02-20T03:36:00z",
        "end_time": "2020-02-20T04:20:00z"
      },
      {
        "name": "해피케어복지관",
        "lat": 35.3074969451063,
        "lng": 129.11200511786,
        "start_time": "2020-02-20T07:30:00z",
        "end_time": "2020-02-20T07:35:00z"
      },
      {
        "name": "해모리",
        "lat": 35.2212768538325,
        "lng": 129.08430852154,
        "start_time": "2020-02-20T08:20:00z",
        "end_time": "2020-02-20T10:00:00z"
      },
      {
        "name": "제이엔제이 스타일헤어 부산대점",
        "lat": 35.2307579987223,
        "lng": 129.086756437622,
        "start_time": "2020-02-20T11:00:00z",
        "end_time": "2020-02-20T11:40:00z"
      },
      {
        "name": "금정회관",
        "lat": 35.2353722605765,
        "lng": 129.080245062203,
        "start_time": "2020-02-21T03:20:00z",
        "end_time": "2020-02-21T03:40:00z"
      },
      {
        "name": "스타벅스 온천장역DT점",
        "lat": 35.2240064302014,
        "lng": 129.086557150942,
        "start_time": "2020-02-21T04:42:00z",
        "end_time": "2020-02-21T04:45:00z"
      },
      {
        "name": "동래구 보건소",
        "lat": 35.2114120201011,
        "lng": 129.079853036605,
        "start_time": "2020-02-23T03:30:00z",
        "end_time": "2020-02-23T06:30:00z"
      }
    ]
  },
  "36": {
    "_id": "5e5b8a820c5ef2060b4c0e6d",
    "patient_info": {
      "patient_id": 38,
      "age": 57,
      "sex": "F",
      "country": "korea",
      "religion": "Chatolic",
      "residental_info": {
        "city": "busan",
        "district": "부산 동래구",
        "lat": 35.2212534758027,
        "lng": 129.082735370039
      }
    },
    "infection_info": {
      "infection_place": {
        "name": "온천교회",
        "lat": 35.21598177534,
        "lng": 129.077176124061
      },
      "infection_type": "religion",
      "infection_factor": 0,
      "isolation_place": {
        "name": "부산대학교병원",
        "lat": 35.1008243310038,
        "lng": 129.0187383154
      }
    },
    "route": [
      {
        "name": "온천교회",
        "lat": 35.21598177534,
        "lng": 129.077176124061,
        "start_time": "2020-02-20T23:30:00z",
        "end_time": "2020-02-21T05:00:00z"
      },
      {
        "name": "우기현내과의원원",
        "lat": 35.2124826165236,
        "lng": 129.078382633795,
        "start_time": "2020-02-21T07:00:00z",
        "end_time": "2020-02-21T08:00:00z"
      },
      {
        "name": "온천교회",
        "lat": 35.21598177534,
        "lng": 129.077176124061,
        "start_time": "2020-02-21T11:00:00z",
        "end_time": "2020-02-21T14:59:00z"
      },
      {
        "name": "코로나19 대동병원 선별진료소",
        "lat": 35.2042360924945,
        "lng": 129.080223332621,
        "start_time": "2020-02-22T02:00:00z",
        "end_time": "2020-02-22T02:00:00z"
      }
    ]
  },
  "37": {
    "_id": "5e5b8c290c5ef2060b4c0e6e",
    "patient_info": {
      "patient_id": 39,
      "age": 29,
      "sex": "M",
      "country": "korea",
      "religion": "none",
      "residental_info": {
        "city": "busan",
        "district": "부산 해운대구",
        "lat": 35.1585232170784,
        "lng": 129.159854668484
      }
    },
    "infection_info": {
      "infection_place": {
        "name": "부산",
        "lat": 35.1585232170784,
        "lng": 129.159854668484
      },
      "infection_type": "person",
      "infection_factor": 61,
      "isolation_place": {
        "name": "해운대백병원",
        "lat": 35.1733359146975,
        "lng": 129.182183058154
      }
    },
    "route": [
      {
        "name": "해운대나눔과행복병원",
        "lat": 35.1658822614928,
        "lng": 129.168810843582,
        "start_time": "2020-02-17T23:00:00z",
        "end_time": "2020-02-18T08:30:00z"
      },
      {
        "name": "올리브영 부산장산점",
        "lat": 35.1689134435982,
        "lng": 129.177861713798,
        "start_time": "2020-02-18T10:30:00z",
        "end_time": "2020-02-18T10:40:00z"
      },
      {
        "name": "해운대나눔과행복병원",
        "lat": 35.1658822614928,
        "lng": 129.168810843582,
        "start_time": "2020-02-18T23:00:00z",
        "end_time": "2020-02-19T08:30:00z"
      },
      {
        "name": "샤오시안",
        "lat": 35.1556434355202,
        "lng": 129.060752857966,
        "start_time": "2020-02-19T09:37:00z",
        "end_time": "2020-02-19T10:12:00z"
      },
      {
        "name": "롯데시네마 서면",
        "lat": 35.1567906706713,
        "lng": 129.062813979055,
        "start_time": "2020-02-19T10:25:00z",
        "end_time": "2020-02-19T12:40:00z"
      },
      {
        "name": "해운대나눔과행복병원",
        "lat": 35.1658822614928,
        "lng": 129.168810843582,
        "start_time": "2020-02-19T23:30:00z",
        "end_time": "2020-02-20T05:20:00z"
      },
      {
        "name": "쭌돈",
        "lat": 35.1708046715527,
        "lng": 129.175921392768,
        "start_time": "2020-02-20T09:10:00z",
        "end_time": "2020-02-20T10:02:00z"
      },
      {
        "name": "해운대나눔과행복병원",
        "lat": 35.1658822614928,
        "lng": 129.168810843582,
        "start_time": "2020-02-20T23:30:00z",
        "end_time": "2020-02-21T08:30:00z"
      },
      {
        "name": "엄마의돼지국밥",
        "lat": 35.1722312385842,
        "lng": 129.07199280183,
        "start_time": "2020-02-21T09:15:00z",
        "end_time": "2020-02-21T10:46:00z"
      },
      {
        "name": "해운대나눔과행복병원",
        "lat": 35.1658822614928,
        "lng": 129.168810843582,
        "start_time": "2020-02-21T23:30:00z",
        "end_time": "2020-02-22T04:00:00z"
      },
      {
        "name": "홍유단 해운대점",
        "lat": 35.1725208039715,
        "lng": 129.174496522422,
        "start_time": "2020-02-23T09:20:00z",
        "end_time": "2020-02-23T10:30:00z"
      },
      {
        "name": "해운대나눔과행복병원",
        "lat": 35.1658822614928,
        "lng": 129.168810843582,
        "start_time": "2020-02-23T23:30:00z",
        "end_time": "2020-02-24T02:20:00z"
      },
      {
        "name": "코로나19 해운대구보건소 선별진료소",
        "lat": 35.1641122033114,
        "lng": 129.178662018177,
        "start_time": "2020-02-24T02:35:00z",
        "end_time": "2020-02-24T02:50:00z"
      }
    ]
  },
  "38": {
    "_id": "5e5b8e710c5ef2060b4c0e6f",
    "patient_info": {
      "patient_id": 40,
      "age": 76,
      "sex": "M",
      "country": "korea",
      "religion": "none",
      "residental_info": {
        "city": "busan",
        "district": "부산 사하구",
        "lat": 35.0465263488422,
        "lng": 128.962741189119
      }
    },
    "infection_info": {
      "infection_place": {
        "name": "부산",
        "lat": 35.1585232170784,
        "lng": 129.159854668484
      },
      "infection_type": "person",
      "infection_factor": 9,
      "isolation_place": {
        "name": "고신대학교 복음병원",
        "lat": 35.0803304138469,
        "lng": 129.015718292082
      }
    },
    "route": [
      {
        "name": "박인주마취통증의학과의원",
        "lat": 35.2106850444759,
        "lng": 129.006548328555,
        "start_time": "2020-02-15T00:30:00z",
        "end_time": "2020-02-15T02:40:00z"
      },
      {
        "name": "롯데마트 사상점",
        "lat": 35.1275449288285,
        "lng": 128.968417708528,
        "start_time": "2020-02-15T03:00:00z",
        "end_time": "2020-02-15T04:00:00z"
      },
      {
        "name": "송도해수피아",
        "lat": 35.0824326402306,
        "lng": 129.025463506043,
        "start_time": "2020-02-16T05:00:00z",
        "end_time": "2020-02-16T09:00:00z"
      },
      {
        "name": "부산역",
        "lat": 35.1151082632134,
        "lng": 129.041420256627,
        "start_time": "2020-02-16T23:40:00z",
        "end_time": "2020-02-16T23:40:00z"
      },
      {
        "name": "재경수산산",
        "lat": 35.0892442387555,
        "lng": 129.024031240462,
        "start_time": "2020-02-17T04:30:00z",
        "end_time": "2020-02-17T06:30:00z"
      },
      {
        "name": "한주의원",
        "lat": 35.1006028240658,
        "lng": 128.995108854954,
        "start_time": "2020-02-18T02:00:00z",
        "end_time": "2020-02-18T03:20:00z"
      },
      {
        "name": "유성약국",
        "lat": 35.1003801366994,
        "lng": 128.995278874737,
        "start_time": "2020-02-18T03:25:00z",
        "end_time": "2020-02-18T03:35:00z"
      },
      {
        "name": "한주의원",
        "lat": 35.1006028240658,
        "lng": 128.995108854954,
        "start_time": "2020-02-21T02:30:00z",
        "end_time": "2020-02-21T03:00:00z"
      },
      {
        "name": "유성약국",
        "lat": 35.1003801366994,
        "lng": 128.995278874737,
        "start_time": "2020-02-21T03:05:00z",
        "end_time": "2020-02-21T03:15:00z"
      },
      {
        "name": "코로나19 사하구보건소 선별진료소",
        "lat": 35.0941572529117,
        "lng": 128.959553446034,
        "start_time": "2020-02-24T04:30:00z",
        "end_time": "2020-02-24T04:30:00z"
      }
    ]
  },
  "39": {
    "_id": "5e5b9a7f0c5ef2060b4c0e70",
    "patient_info": {
      "patient_id": 41,
      "age": 27,
      "sex": "M",
      "country": "korea",
      "religion": "Chatolic",
      "residental_info": {
        "city": "busan",
        "district": "부산 동래구",
        "lat": 35.2212534758027,
        "lng": 129.082735370039
      }
    },
    "infection_info": {
      "infection_place": {
        "name": "온천교회",
        "lat": 35.21598177534,
        "lng": 129.077176124061
      },
      "infection_type": "religion",
      "infection_factor": 2,
      "isolation_place": {
        "name": "부산의료원",
        "lat": 35.1872965543253,
        "lng": 129.059224891471
      }
    },
    "route": [
      {
        "name": "코로나19 동래구보건소 선별진료소",
        "lat": 35.2114120201011,
        "lng": 129.079853036605,
        "start_time": "2020-02-24T01:10:00z",
        "end_time": "2020-02-24T02:20:00z"
      }
    ]
  },
  "40": {
    "_id": "5e5b9acf0c5ef2060b4c0e71",
    "patient_info": {
      "patient_id": 42,
      "age": 19,
      "sex": "M",
      "country": "korea",
      "religion": "none",
      "residental_info": {
        "city": "busan",
        "district": "부산 동래구",
        "lat": 35.2212534758027,
        "lng": 129.082735370039
      }
    },
    "infection_info": {
      "infection_place": {
        "name": "부산",
        "lat": 35.1585232170784,
        "lng": 129.159854668484
      },
      "infection_type": "person",
      "infection_factor": 2,
      "isolation_place": {
        "name": "부산의료원",
        "lat": 35.1872965543253,
        "lng": 129.059224891471
      }
    },
    "route": {
      "start_time": [
        
      ],
      "end_time": [
        
      ]
    }
  },
  "41": {
    "_id": "5e5b9ce60c5ef2060b4c0e72",
    "patient_info": {
      "patient_id": 43,
      "age": 51,
      "sex": "F",
      "country": "korea",
      "religion": "none",
      "residental_info": {
        "city": "busan",
        "district": "부산 동래구",
        "lat": 35.2212534758027,
        "lng": 129.082735370039
      }
    },
    "infection_info": {
      "infection_place": {
        "name": "부산",
        "lat": 35.1585232170784,
        "lng": 129.159854668484
      },
      "infection_type": "person",
      "infection_factor": 7,
      "isolation_place": {
        "name": "부산의료원",
        "lat": 35.1872965543253,
        "lng": 129.059224891471
      }
    },
    "route": [
      {
        "name": "세븐스타코인노래연습장 양정역점",
        "lat": 35.1697204658319,
        "lng": 129.069366509961,
        "start_time": "2020-02-20T02:30:00z",
        "end_time": "2020-02-20T09:00:00z"
      },
      {
        "name": "세븐스타코인노래연습장 양정역점",
        "lat": 35.1697204658319,
        "lng": 129.069366509961,
        "start_time": "2020-02-21T02:30:00z",
        "end_time": "2020-02-21T02:30:00z"
      },
      {
        "name": "서면바른내과의원",
        "lat": 35.1552462223747,
        "lng": 129.059522675191,
        "start_time": "2020-02-21T02:40:00z",
        "end_time": "2020-02-21T03:40:00z"
      },
      {
        "name": "세븐스타코인노래연습장 양정역점",
        "lat": 35.1697204658319,
        "lng": 129.069366509961,
        "start_time": "2020-02-21T03:45:00z",
        "end_time": "2020-02-21T10:00:00z"
      },
      {
        "name": "세븐스타코인노래연습장 양정역점",
        "lat": 35.1697204658319,
        "lng": 129.069366509961,
        "start_time": "2020-02-22T05:20:00z",
        "end_time": "2020-02-22T06:00:00z"
      },
      {
        "name": "우정 서면2호점",
        "lat": 35.1562060048052,
        "lng": 129.062009172214,
        "start_time": "2020-02-22T05:20:00z",
        "end_time": "2020-02-22T06:00:00z"
      },
      {
        "name": "세븐스타코인노래연습장 양정역점",
        "lat": 35.1697204658319,
        "lng": 129.069366509961,
        "start_time": "2020-02-22T06:00:00z",
        "end_time": "2020-02-22T14:00:00z"
      },
      {
        "name": "코로나19 연제구보건소 선별진료소",
        "lat": 35.1768314143914,
        "lng": 129.079103192178,
        "start_time": "2020-02-23T04:00:00z",
        "end_time": "2020-02-23T04:00:00z"
      },
      {
        "name": "롯데리아 부산시청DT점",
        "lat": 35.1802417326536,
        "lng": 129.077403175504,
        "start_time": "2020-02-23T04:45:00z",
        "end_time": "2020-02-23T05:00:00z"
      },
      {
        "name": "코로나19 연제구보건소 선별진료소",
        "lat": 35.1768314143914,
        "lng": 129.079103192178,
        "start_time": "2020-02-23T05:00:00z",
        "end_time": "2020-02-23T05:10:00z"
      },
      {
        "name": "CU 사직쌍용예가점",
        "lat": 35.1971637390421,
        "lng": 129.057770148892,
        "start_time": "2020-02-23T07:35:00z",
        "end_time": "2020-02-23T07:39:00z"
      },
      {
        "name": "과일특공대 사작사단2호점",
        "lat": 35.1963615515742,
        "lng": 129.05799143104,
        "start_time": "2020-02-23T07:40:00z",
        "end_time": "2020-02-23T07:49:00z"
      },
      {
        "name": "코로나19 연제구보건소 선별진료소",
        "lat": 35.1768314143914,
        "lng": 129.079103192178,
        "start_time": "2020-02-24T03:20:00z",
        "end_time": "2020-02-24T03:50:00z"
      },
      {
        "name": "동래구 보건소",
        "lat": 35.2114120201011,
        "lng": 129.079853036605,
        "start_time": "2020-02-24T04:00:00z",
        "end_time": "2020-02-24T06:00:00z"
      }
    ]
  },
  "42": {
    "_id": "5e5b9d440c5ef2060b4c0e73",
    "patient_info": {
      "patient_id": 44,
      "age": 48,
      "sex": "F",
      "country": "korea",
      "religion": "Chatolic",
      "residental_info": {
        "city": "busan",
        "district": "부산 동래구",
        "lat": 35.2212534758027,
        "lng": 129.082735370039
      }
    },
    "infection_info": {
      "infection_place": {
        "name": "온천교회",
        "lat": 35.21598177534,
        "lng": 129.077176124061
      },
      "infection_type": "religion",
      "infection_factor": 1,
      "isolation_place": {
        "name": "부산의료원",
        "lat": 35.1872965543253,
        "lng": 129.059224891471
      }
    },
    "route": [
      {
        "name": "탑마트 사직점",
        "lat": 35.1987748170233,
        "lng": 129.058311419648,
        "start_time": "2020-02-22T07:02:00z",
        "end_time": "2020-02-22T07:22:00z"
      }
    ]
  },
  "43": {
    "_id": "5e5b9daa0c5ef2060b4c0e74",
    "patient_info": {
      "patient_id": 45,
      "age": 66,
      "sex": "F",
      "country": "korea",
      "religion": "none",
      "residental_info": {
        "city": "busan",
        "district": "부산 동래구",
        "lat": 35.2212534758027,
        "lng": 129.082735370039
      }
    },
    "infection_info": {
      "infection_place": {
        "name": "부산",
        "lat": 35.1585232170784,
        "lng": 129.159854668484
      },
      "infection_type": "person",
      "infection_factor": 0,
      "isolation_place": {
        "name": "부산의료원",
        "lat": 35.1872965543253,
        "lng": 129.059224891471
      }
    },
    "route": [
      {
        "name": "코로나19 동래구보건소 선별진료소",
        "lat": 35.2114120201011,
        "lng": 129.079853036605,
        "start_time": "2020-02-23T09:00:00z",
        "end_time": "2020-02-23T09:20:00z"
      }
    ]
  },
  "44": {
    "_id": "5e5b9e570c5ef2060b4c0e75",
    "patient_info": {
      "patient_id": 46,
      "age": 73,
      "sex": "M",
      "country": "korea",
      "religion": "none",
      "residental_info": {
        "city": "busan",
        "district": "부산 동래구",
        "lat": 35.2212534758027,
        "lng": 129.082735370039
      }
    },
    "infection_info": {
      "infection_place": {
        "name": "부산",
        "lat": 35.1585232170784,
        "lng": 129.159854668484
      },
      "infection_type": "person",
      "infection_factor": 26,
      "isolation_place": {
        "name": "부산의료원",
        "lat": 35.1872965543253,
        "lng": 129.059224891471
      }
    },
    "route": [
      {
        "name": "명성부부치과의원",
        "lat": 35.1599994269324,
        "lng": 129.066160676249,
        "start_time": "2020-02-19T00:37:00z",
        "end_time": "2020-02-19T01:20:00z"
      },
      {
        "name": "명성부부치과의원",
        "lat": 35.1599994269324,
        "lng": 129.066160676249,
        "start_time": "2020-02-20T00:10:00z",
        "end_time": "2020-02-20T01:20:00z"
      },
      {
        "name": "명성부부치과의원",
        "lat": 35.1599994269324,
        "lng": 129.066160676249,
        "start_time": "2020-02-21T00:33:00z",
        "end_time": "2020-02-21T01:20:00z"
      },
      {
        "name": "명성부부치과의원",
        "lat": 35.1599994269324,
        "lng": 129.066160676249,
        "start_time": "2020-02-22T00:30:00z",
        "end_time": "2020-02-22T01:20:00z"
      },
      {
        "name": "코로나19 동래구보건소 선별진료소",
        "lat": 35.2114120201011,
        "lng": 129.079853036605,
        "start_time": "2020-02-23T09:00:00z",
        "end_time": "2020-02-23T09:20:00z"
      }
    ]
  },
  "45": {
    "_id": "5e5b9f9d0c5ef2060b4c0e76",
    "patient_info": {
      "patient_id": 47,
      "age": 48,
      "sex": "M",
      "country": "korea",
      "religion": "none",
      "residental_info": {
        "city": "busan",
        "district": "부산 동래구",
        "lat": 35.2212534758027,
        "lng": 129.082735370039
      }
    },
    "infection_info": {
      "infection_place": {
        "name": "부산",
        "lat": 35.1585232170784,
        "lng": 129.159854668484
      },
      "infection_type": "other",
      "infection_factor": 10,
      "isolation_place": {
        "name": "고신대학교 복음병원",
        "lat": 35.0803304138469,
        "lng": 129.015718292082
      }
    },
    "route": [
      {
        "name": "부산대학교 통합기계관 208호",
        "lat": 35.2323446344329,
        "lng": 129.084001908541,
        "start_time": "2020-02-21T02:00:00z",
        "end_time": "2020-02-21T09:00:00z"
      },
      {
        "name": "송림식당",
        "lat": 35.2319185159143,
        "lng": 129.084883920659,
        "start_time": "2020-02-21T10:00:00z",
        "end_time": "2020-02-21T10:50:00z"
      },
      {
        "name": "자스민커피 3호점",
        "lat": 35.2316846234559,
        "lng": 129.084860361374,
        "start_time": "2020-02-21T11:00:00z",
        "end_time": "2020-02-21T11:20:00z"
      },
      {
        "name": "부산대학교 통합기계관 208호",
        "lat": 35.2323446344329,
        "lng": 129.084001908541,
        "start_time": "2020-02-21T11:30:00z",
        "end_time": "2020-02-21T11:50:00z"
      },
      {
        "name": "코로나19 대동병원 선별진료소",
        "lat": 35.2042360924945,
        "lng": 129.080223332621,
        "start_time": "2020-02-24T02:00:00z",
        "end_time": "2020-02-24T04:00:00z"
      }
    ]
  },
  "46": {
    "_id": "5e5b9ff90c5ef2060b4c0e77",
    "patient_info": {
      "patient_id": 48,
      "age": 79,
      "sex": "M",
      "country": "korea",
      "religion": "Chatolic",
      "residental_info": {
        "city": "busan",
        "district": "부산 동래구",
        "lat": 35.2212534758027,
        "lng": 129.082735370039
      }
    },
    "infection_info": {
      "infection_place": {
        "name": "온천교회",
        "lat": 35.21598177534,
        "lng": 129.077176124061
      },
      "infection_type": " religion",
      "infection_factor": 1,
      "isolation_place": {
        "name": "부산의료원",
        "lat": 35.1872965543253,
        "lng": 129.059224891471
      }
    },
    "route": [
      {
        "name": "온천교회",
        "lat": 35.21598177534,
        "lng": 129.077176124061,
        "start_time": "2020-02-21T11:00:00z",
        "end_time": "2020-02-21T13:00:00z"
      },
      {
        "name": "코로나19 동래구보건소 선별진료소",
        "lat": 35.2114120201011,
        "lng": 129.079853036605,
        "start_time": "2020-02-24T00:50:00z",
        "end_time": "2020-02-24T05:00:00z"
      }
    ]
  },
  "47": {
    "_id": "5e5ba04b0c5ef2060b4c0e78",
    "patient_info": {
      "patient_id": 49,
      "age": 38,
      "sex": "F",
      "country": "korea",
      "religion": "Chatolic",
      "residental_info": {
        "city": "busan",
        "district": "부산 금정구",
        "lat": 35.2454243820506,
        "lng": 129.063681936853
      }
    },
    "infection_info": {
      "infection_place": {
        "name": "온천교회",
        "lat": 35.21598177534,
        "lng": 129.077176124061
      },
      "infection_type": " religion",
      "infection_factor": 2,
      "isolation_place": {
        "name": "부산의료원",
        "lat": 35.1872965543253,
        "lng": 129.059224891471
      }
    },
    "route": [
      {
        "name": "금정구보건소",
        "lat": 35.2420536771383,
        "lng": 129.092454562246,
        "start_time": "2020-02-24T05:30:00z",
        "end_time": "2020-02-24T06:40:00z"
      }
    ]
  },